country,state,city,station,last_update,latitude,longitude,pollutant_id,pollutant_min,pollutant_max,pollutant_avg
India,Assam,Byrnihat,"Central Academy for SFS, Byrnihat - PCBA",11-07-2026 14:00,26.071318,91.87488,OZONE,20,30,23
India,Assam,Guwahati,"IITG, Guwahati - PCBA",11-07-2026 14:00,26.2028636,91.70046436,PM10,10,80,28
India,Assam,Guwahati,"IITG, Guwahati - PCBA",11-07-2026 14:00,26.2028636,91.70046436,NH3,5,5,5
India,Assam,Guwahati,"IITG, Guwahati - PCBA",11-07-2026 14:00,26.2028636,91.70046436,CO,5,6,6
India,Assam,Guwahati,"Railway Colony, Guwahati - PCBA",11-07-2026 14:00,26.181742,91.78063,NO2,3,4,3
India,Assam,Guwahati,"LGBI Airport, Guwahati - PCBA",11-07-2026 14:00,26.10887,91.589544,PM2.5,17,71,42
India,Assam,Guwahati,"LGBI Airport, Guwahati - PCBA",11-07-2026 14:00,26.10887,91.589544,NO2,10,20,15
India,Assam,Guwahati,"Pan Bazaar, Guwahati - PCBA",11-07-2026 14:00,26.1875,91.744194,CO,16,21,19
India,Assam,Guwahati,"Pan Bazaar, Guwahati - PCBA",11-07-2026 14:00,26.1875,91.744194,OZONE,16,24,19
India,Assam,Nagaon,"Christianpatty, Nagaon - PCBA",11-07-2026 14:00,26.349082,92.68449,OZONE,9,14,12
India,Assam,Nalbari,"Bata Chowk, Nalbari - PCBA",11-07-2026 14:00,26.446912,91.439057,NO2,14,15,14
India,Assam,Nalbari,"Bata Chowk, Nalbari - PCBA",11-07-2026 14:00,26.446912,91.439057,NH3,6,6,6
India,Assam,Silchar,"Tarapur, Silchar - PCBA",11-07-2026 14:00,24.82827,92.79525,PM10,43,56,50
India,Assam,Silchar,"Tarapur, Silchar - PCBA",11-07-2026 14:00,24.82827,92.79525,SO2,4,7,6
India,Bihar,Bettiah,"Kamalnath Nagar, Bettiah - BSPCB",11-07-2026 14:00,26.80365,84.51954,SO2,13,16,14
India,Bihar,Bhagalpur,"Mayaganj, Bhagalpur - BSPCB",11-07-2026 14:00,25.265194,87.012947,PM10,NA,NA,NA
India,Bihar,Bhagalpur,"Mayaganj, Bhagalpur - BSPCB",11-07-2026 14:00,25.265194,87.012947,NO2,6,9,7
India,Bihar,Bhagalpur,"Mayaganj, Bhagalpur - BSPCB",11-07-2026 14:00,25.265194,87.012947,SO2,1,69,25
India,Bihar,Bihar Sharif,"D M Colony, Bihar Sharif - BSPCB",11-07-2026 14:00,25.204762,85.51496,NO2,9,10,9
India,Bihar,Bihar Sharif,"D M Colony, Bihar Sharif - BSPCB",11-07-2026 14:00,25.204762,85.51496,NH3,3,4,3
India,Bihar,Bihar Sharif,"D M Colony, Bihar Sharif - BSPCB",11-07-2026 14:00,25.204762,85.51496,CO,NA,NA,NA
India,Bihar,Buxar,"Charitra Van, Buxar - BSPCB",11-07-2026 14:00,25.56752,83.966379,NO2,9,10,9
India,Bihar,Buxar,"Charitra Van, Buxar - BSPCB",11-07-2026 14:00,25.56752,83.966379,SO2,27,33,29
India,Bihar,Chhapra,"Darshan Nagar, Chhapra - BSPCB",11-07-2026 14:00,25.7808257,84.7446768,PM10,109,122,113
India,Andhra Pradesh,Amaravati,"Secretariat, Amaravati - APPCB",11-07-2026 14:00,16.5150833,80.5181667,NH3,3,4,3
India,Andhra Pradesh,Anantapur,"Gulzarpet, Anantapur - APPCB",11-07-2026 14:00,14.675886,77.593027,PM2.5,56,190,91
India,Andhra Pradesh,Chittoor,"Gangineni Cheruvu, Chittoor - APPCB",11-07-2026 14:00,13.20488,79.097889,PM2.5,60,119,73
India,Andhra Pradesh,Chittoor,"Gangineni Cheruvu, Chittoor - APPCB",11-07-2026 14:00,13.20488,79.097889,PM10,63,108,74
India,Andhra Pradesh,Eluru,"District Court, Eluru - APPCB",11-07-2026 14:00,16.711754,81.092095,CO,13,25,18
India,Andhra Pradesh,Eluru,"District Court, Eluru - APPCB",11-07-2026 14:00,16.711754,81.092095,OZONE,5,15,11
India,Andhra Pradesh,Guntur,"Rajendra Nagar North, Guntur - APPCB",11-07-2026 14:00,16.316553,80.413302,PM2.5,41,57,46
India,Andhra Pradesh,Guntur,"Rajendra Nagar North, Guntur - APPCB",11-07-2026 14:00,16.316553,80.413302,CO,19,21,20
India,Andhra Pradesh,Vijayawada,"HB Colony, Vijayawada - APPCB",11-07-2026 14:00,16.536107,80.594233,PM2.5,NA,NA,NA
India,Andhra Pradesh,Vijayawada,"HB Colony, Vijayawada - APPCB",11-07-2026 14:00,16.536107,80.594233,OZONE,16,26,21
India,Andhra Pradesh,Vijayawada,"Kanuru, Vijayawada - APPCB",11-07-2026 14:00,16.486692,80.699436,PM10,NA,NA,NA
India,Andhra Pradesh,Vijayawada,"Kanuru, Vijayawada - APPCB",11-07-2026 14:00,16.486692,80.699436,NO2,23,33,25
India,Andhra Pradesh,Vijayawada,"Kanuru, Vijayawada - APPCB",11-07-2026 14:00,16.486692,80.699436,CO,19,25,22
India,Andhra Pradesh,Vijayawada,"Rajiv Nagar, Vijayawada - APPCB",11-07-2026 14:00,16.554731,80.64911,PM2.5,47,72,51
India,Andhra Pradesh,Vijayawada,"Rajiv Gandhi Park, Vijayawada - APPCB",11-07-2026 14:00,16.509717,80.612222,NH3,3,8,5
India,Bihar,Munger,"Town Hall, Munger - BSPCB",11-07-2026 14:00,25.376776,86.471523,NH3,NA,NA,NA
India,Bihar,Muzaffarpur,"Muzaffarpur Collectorate, Muzaffarpur - BSPCB",11-07-2026 14:00,26.1209,85.3647,CO,19,43,25
India,Bihar,Muzaffarpur,"Buddha Colony, Muzaffarpur - BSPCB",11-07-2026 14:00,26.11442,85.39813,NH3,5,9,8
India,Bihar,Patna,"Rajbansi Nagar, Patna - BSPCB",11-07-2026 14:00,25.599486,85.113666,PM2.5,NA,NA,NA
India,Bihar,Patna,"Rajbansi Nagar, Patna - BSPCB",11-07-2026 14:00,25.599486,85.113666,CO,34,39,37
India,Bihar,Patna,"Muradpur, Patna - BSPCB",11-07-2026 14:00,25.619651,85.147382,PM10,28,95,52
India,Bihar,Gaya,"Kareemganj, Gaya - BSPCB",11-07-2026 14:00,24.792403,84.992416,OZONE,14,59,29
India,Bihar,Gaya,"SFTI Kusdihra, Gaya - BSPCB",11-07-2026 14:00,24.762518,84.982348,PM2.5,14,34,26
India,Bihar,Gaya,"SFTI Kusdihra, Gaya - BSPCB",11-07-2026 14:00,24.762518,84.982348,PM10,16,40,32
India,Bihar,Gaya,"SFTI Kusdihra, Gaya - BSPCB",11-07-2026 14:00,24.762518,84.982348,NH3,4,6,5
India,Bihar,Hajipur,"Industrial Area, Hajipur - BSPCB",11-07-2026 14:00,25.697189,85.2459,NO2,10,29,16
India,Bihar,Hajipur,"Industrial Area, Hajipur - BSPCB",11-07-2026 14:00,25.697189,85.2459,SO2,3,8,6
India,Bihar,Katihar,"Mirchaibari, Katihar - BSPCB",11-07-2026 14:00,25.560083,87.553265,PM2.5,2,22,9
India,Bihar,Katihar,"Mirchaibari, Katihar - BSPCB",11-07-2026 14:00,25.560083,87.553265,PM10,2,22,10
India,Bihar,Katihar,"Mirchaibari, Katihar - BSPCB",11-07-2026 14:00,25.560083,87.553265,NH3,1,1,1
India,Bihar,Kishanganj,"SDM Office_Khagra, Kishanganj - BSPCB",11-07-2026 14:00,26.0881305,87.93840336,PM10,NA,NA,NA
India,Bihar,Kishanganj,"SDM Office_Khagra, Kishanganj - BSPCB",11-07-2026 14:00,26.0881305,87.93840336,SO2,NA,NA,NA
India,Bihar,Manguraha,"Forest Rest House, Manguraha - BSPCB",11-07-2026 14:00,27.308328,84.531742,PM2.5,NA,NA,NA
India,Assam,Sivasagar,"Girls College, Sivasagar - PCBA",11-07-2026 14:00,26.987634,94.636574,SO2,8,9,9
India,Assam,Sivasagar,"Girls College, Sivasagar - PCBA",11-07-2026 14:00,26.987634,94.636574,OZONE,20,55,40
India,Bihar,Araria,"Kharahiya Basti, Araria - BSPCB",11-07-2026 14:00,26.146529,87.454184,SO2,1,19,10
India,Bihar,Araria,"Kharahiya Basti, Araria - BSPCB",11-07-2026 14:00,26.146529,87.454184,OZONE,10,10,10
India,Bihar,Arrah,"New DM Office, Arrah - BSPCB",11-07-2026 14:00,25.5626095,84.663264,PM2.5,22,500,228
India,Bihar,Arrah,"New DM Office, Arrah - BSPCB",11-07-2026 14:00,25.5626095,84.663264,NH3,2,2,2
India,Bihar,Aurangabad,"Gurdeo Nagar, Aurangabad - BSPCB",11-07-2026 14:00,24.75746,84.366208,PM2.5,NA,NA,NA
India,Bihar,Begusarai,"Lohiyanagar, Begusarai - BSPCB",11-07-2026 14:00,25.42742023,86.13886079,NO2,5,10,8
India,Bihar,Bettiah,"Kamalnath Nagar, Bettiah - BSPCB",11-07-2026 14:00,26.80365,84.51954,PM2.5,NA,NA,NA
India,Andhra Pradesh,Kadapa,"Yerramukkapalli, Kadapa - APPCB",11-07-2026 14:00,14.465052,78.824187,OZONE,35,47,43
India,Andhra Pradesh,Nellore,"Ambedkar Nagar, Nellore - APPCB ",11-07-2026 14:00,14.438164,79.966814,CO,38,39,39
India,Delhi,Delhi,"DTU, Delhi - CPCB",11-07-2026 14:00,28.7500499,77.1112615,PM10,28,253,96
India,Delhi,Delhi,"DTU, Delhi - CPCB",11-07-2026 14:00,28.7500499,77.1112615,OZONE,5,14,10
India,Delhi,Delhi,"IIT Delhi, Delhi - IITM",11-07-2026 14:00,28.54246,77.191651,PM10,84,430,164
India,Delhi,Delhi,"IIT Delhi, Delhi - IITM",11-07-2026 14:00,28.54246,77.191651,NH3,NA,NA,NA
India,Delhi,Delhi,"IIT Delhi, Delhi - IITM",11-07-2026 14:00,28.54246,77.191651,CO,19,42,24
India,Delhi,Delhi,"ITO, Delhi - CPCB",11-07-2026 14:00,28.628624,77.24106,PM10,28,238,91
India,Delhi,Delhi,"ITO, Delhi - CPCB",11-07-2026 14:00,28.628624,77.24106,SO2,8,28,20
India,Delhi,Delhi,"ITO, Delhi - CPCB",11-07-2026 14:00,28.628624,77.24106,OZONE,15,43,34
India,Delhi,Delhi,"R K Puram, Delhi - DPCC",11-07-2026 14:00,28.563262,77.186937,PM2.5,5,97,34
India,Delhi,Delhi,"North Campus, DU, Delhi - IITM",11-07-2026 14:00,28.6573814,77.1585447,SO2,NA,NA,NA
India,Delhi,Delhi,"North Campus, DU, Delhi - IITM",11-07-2026 14:00,28.6573814,77.1585447,OZONE,20,55,35
India,Delhi,Delhi,"Alipur, Delhi - DPCC",11-07-2026 14:00,28.815329,77.15301,PM2.5,10,88,44
India,Delhi,Delhi,"Alipur, Delhi - DPCC",11-07-2026 14:00,28.815329,77.15301,PM10,31,400,108
India,Delhi,Delhi,"IMD Lodhi Road, Delhi - IITM",11-07-2026 14:00,28.5918245,77.2273074,PM10,42,320,95
India,Chandigarh,Chandigarh,"Sector-53, Chandigarh - CPCC",11-07-2026 14:00,30.719859,76.738637,NH3,NA,NA,NA
India,Chandigarh,Chandigarh,"Sector-53, Chandigarh - CPCC",11-07-2026 14:00,30.719859,76.738637,SO2,NA,NA,NA
India,Chandigarh,Chandigarh,"Sector-53, Chandigarh - CPCC",11-07-2026 14:00,30.719859,76.738637,CO,43,43,43
India,Chhattisgarh,Bhilai,"Civic Center, Bhilai - Bhilai Steel Plant",11-07-2026 14:00,21.185571,81.343175,PM2.5,8,30,17
India,Chhattisgarh,Bhilai,"Civic Center, Bhilai - Bhilai Steel Plant",11-07-2026 14:00,21.185571,81.343175,CO,20,21,20
India,Chhattisgarh,Bhilai,"32Bungalows, Bhilai - CECB",11-07-2026 14:00,21.194815,81.31477,PM10,41,61,52
India,Chhattisgarh,Bhilai,"32Bungalows, Bhilai - CECB",11-07-2026 14:00,21.194815,81.31477,SO2,10,31,14
India,Chhattisgarh,Bhilai,"32Bungalows, Bhilai - CECB",11-07-2026 14:00,21.194815,81.31477,CO,8,10,9
India,Chhattisgarh,Bhilai,"Hathkhoj, Bhilai - CECB",11-07-2026 14:00,21.224231,81.40835,NO2,9,21,13
India,Chhattisgarh,Bhilai,"Hathkhoj, Bhilai - CECB",11-07-2026 14:00,21.224231,81.40835,NH3,4,5,5
India,Chhattisgarh,Bilaspur,"Mangala, Bilaspur - NTPC",11-07-2026 14:00,22.08815,82.13737,NH3,NA,NA,NA
India,Chhattisgarh,Bilaspur,"Mangala, Bilaspur - NTPC",11-07-2026 14:00,22.08815,82.13737,SO2,1,14,11
India,Delhi,Delhi,"IHBAS, Dilshad Garden, Delhi - CPCB",11-07-2026 14:00,28.6811736,77.3025234,PM10,12,500,144
India,Delhi,Delhi,"IHBAS, Dilshad Garden, Delhi - CPCB",11-07-2026 14:00,28.6811736,77.3025234,OZONE,94,310,172
India,Delhi,Delhi,"Sri Aurobindo Marg, Delhi - DPCC",11-07-2026 14:00,28.531346,77.190156,NH3,NA,NA,NA
India,Delhi,Delhi,"Vivek Vihar, Delhi - DPCC",11-07-2026 14:00,28.672342,77.31526,NH3,4,6,5
India,Delhi,Delhi,"Najafgarh, Delhi - DPCC",11-07-2026 14:00,28.570173,76.933762,SO2,4,9,6
India,Delhi,Delhi,"Mundka, Delhi - DPCC",11-07-2026 14:00,28.684678,77.076574,OZONE,3,6,5
India,Delhi,Delhi,"Wazirpur, Delhi - DPCC",11-07-2026 14:00,28.699793,77.165453,PM10,105,446,195
India,Delhi,Delhi,"Wazirpur, Delhi - DPCC",11-07-2026 14:00,28.699793,77.165453,SO2,8,11,10
India,Delhi,Delhi,"Wazirpur, Delhi - DPCC",11-07-2026 14:00,28.699793,77.165453,OZONE,16,18,17
India,Delhi,Delhi,"Dr. Karni Singh Shooting Range, Delhi - DPCC",11-07-2026 14:00,28.498571,77.26484,NH3,5,8,6
India,Chhattisgarh,Korba,"Urja Nagar, Korba - CECB",11-07-2026 14:00,22.348441,82.549611,NO2,5,11,7
India,Chhattisgarh,Korba,"Rampur, Korba - CECB",11-07-2026 14:00,22.368195,82.746431,NO2,9,34,17
India,Chhattisgarh,Korba,"Rampur, Korba - CECB",11-07-2026 14:00,22.368195,82.746431,NH3,1,1,1
India,Chhattisgarh,Korba,"Rampur, Korba - CECB",11-07-2026 14:00,22.368195,82.746431,OZONE,8,8,8
India,Chhattisgarh,Kunjemura,"OP Jindal School, Kunjemura - CECB",11-07-2026 14:00,22.12665,83.483212,SO2,7,15,12
India,Chhattisgarh,Milupara,"Govt. Higher Secondary School, Milupara - CECB",11-07-2026 14:00,22.1910172,83.5197009,PM2.5,NA,NA,NA
India,Chhattisgarh,Milupara,"Govt. Higher Secondary School, Milupara - CECB",11-07-2026 14:00,22.1910172,83.5197009,NO2,NA,NA,NA
India,Chhattisgarh,Milupara,"Govt. Higher Secondary School, Milupara - CECB",11-07-2026 14:00,22.1910172,83.5197009,OZONE,4,62,19
India,Chhattisgarh,Raipur,"Bhatagaon New ISBT, Raipur - CECB",11-07-2026 14:00,21.219665,81.630094,PM2.5,16,36,23
India,Chhattisgarh,Raipur,"Bhatagaon New ISBT, Raipur - CECB",11-07-2026 14:00,21.219665,81.630094,NH3,2,2,2
India,Chhattisgarh,Raipur,"Bhatagaon New ISBT, Raipur - CECB",11-07-2026 14:00,21.219665,81.630094,CO,11,25,17
India,Chhattisgarh,Raipur,"Siltara Phase-II, Raipur - CECB",11-07-2026 14:00,21.371751,81.664929,NH3,2,2,2
India,Chhattisgarh,Raipur,"Krishak Nagar, Raipur - CECB",11-07-2026 14:00,21.237755,81.705301,OZONE,2,7,3
India,Chhattisgarh,Tumidih,"OP Jindal Industrial Park, Tumidih - CECB",11-07-2026 14:00,22.06631475,83.33820077,PM10,54,103,70
India,Chhattisgarh,Tumidih,"OP Jindal Industrial Park, Tumidih - CECB",11-07-2026 14:00,22.06631475,83.33820077,CO,4,7,6
India,Chhattisgarh,Tumidih,"OP Jindal Industrial Park, Tumidih - CECB",11-07-2026 14:00,22.06631475,83.33820077,OZONE,27,27,27
India,Delhi,Delhi,"Pusa, Delhi - IITM",11-07-2026 14:00,28.63611,77.173332,NH3,NA,NA,NA
India,Bihar,Patna,"Samanpura, Patna - BSPCB",11-07-2026 14:00,25.596727,85.085624,SO2,4,5,5
India,Bihar,Patna,"IGSC Planetarium Complex, Patna - BSPCB",11-07-2026 14:00,25.610369,85.132568,NH3,NA,NA,NA
India,Bihar,Patna,"IGSC Planetarium Complex, Patna - BSPCB",11-07-2026 14:00,25.610369,85.132568,OZONE,58,58,58
India,Bihar,Rajgir,"Dangi Tola, Rajgir - BSPCB",11-07-2026 14:00,25.0328,85.41948,SO2,3,3,3
India,Bihar,Saharsa,"Police Line, Saharsa - BSPCB",11-07-2026 14:00,25.892357,86.590325,CO,36,37,37
India,Delhi,Delhi,"Pusa, Delhi - IITM",11-07-2026 14:00,28.63611,77.173332,OZONE,5,112,63
India,Delhi,Delhi,"Cantonment Area, Delhi - DPCC",11-07-2026 14:00,28.594169,77.1251,SO2,3,14,7
India,Delhi,Delhi,"Major Dhyan Chand National Stadium, Delhi - DPCC",11-07-2026 14:00,28.611281,77.237738,PM2.5,10,107,45
India,Delhi,Delhi,"Sonia Vihar, Delhi - DPCC",11-07-2026 14:00,28.710508,77.249485,SO2,0,7,2
India,Delhi,Delhi,"Sonia Vihar, Delhi - DPCC",11-07-2026 14:00,28.710508,77.249485,OZONE,7,12,9
India,Delhi,Delhi,"Bawana, Delhi - DPCC",11-07-2026 14:00,28.7762,77.051074,CO,34,64,50
India,Delhi,Delhi,"Nehru Nagar, Delhi - DPCC",11-07-2026 14:00,28.56789,77.250515,PM2.5,33,160,67
India,Delhi,Delhi,"Patparganj, Delhi - DPCC",11-07-2026 14:00,28.623763,77.287209,OZONE,6,28,16
India,Delhi,Delhi,"Jawaharlal Nehru Stadium, Delhi - DPCC",11-07-2026 14:00,28.58028,77.233829,PM2.5,45,95,67
India,Bihar,Sasaram,"Dada Peer, Sasaram - BSPCB",11-07-2026 14:00,24.952822,84.002396,CO,NA,NA,NA
India,Chandigarh,Chandigarh,"Sector-25, Chandigarh - CPCC",11-07-2026 14:00,30.751462,76.762879,PM10,28,79,49
India,Gujarat,Surat,"Katargam, Surat - Nexteng Enviro",11-07-2026 14:00,21.217779,72.834787,NO2,2,30,15
India,Gujarat,Surat,"Science Center, Surat - SMC",11-07-2026 14:00,21.170046,72.795405,NO2,2,4,3
India,Gujarat,Surat,"Science Center, Surat - SMC",11-07-2026 14:00,21.170046,72.795405,NH3,NA,NA,NA
India,Gujarat,Surat,"Science Center, Surat - SMC",11-07-2026 14:00,21.170046,72.795405,OZONE,NA,NA,NA
India,Gujarat,Vadodara,"Bapunagar, Vadodara - Nexteng Enviro",11-07-2026 14:00,22.320153,73.216285,PM2.5,21,75,46
India,Gujarat,Vadodara,"Bapunagar, Vadodara - Nexteng Enviro",11-07-2026 14:00,22.320153,73.216285,CO,93,97,95
India,Gujarat,Vapi,"Phase-1 GIDC, Vapi - GPCB",11-07-2026 14:00,20.362421,72.918013,CO,NA,NA,NA
India,Haryana,Ambala,"Patti Mehar, Ambala - HSPCB",11-07-2026 14:00,30.379589,76.778328,PM10,34,460,99
India,Haryana,Bahadurgarh,"Arya Nagar, Bahadurgarh - HSPCB",11-07-2026 14:00,28.6701,76.9254,PM10,31,122,64
India,Haryana,Bahadurgarh,"Arya Nagar, Bahadurgarh - HSPCB",11-07-2026 14:00,28.6701,76.9254,NO2,12,21,16
India,Haryana,Bahadurgarh,"Arya Nagar, Bahadurgarh - HSPCB",11-07-2026 14:00,28.6701,76.9254,NH3,10,13,11
India,Haryana,Ballabgarh,"Nathu Colony, Ballabgarh - HSPCB",11-07-2026 14:00,28.3419248,77.319699,OZONE,4,10,6
India,Haryana,Bhiwani,"H.B. Colony, Bhiwani - HSPCB",11-07-2026 14:00,28.806223,76.141105,PM2.5,48,259,96
India,Haryana,Bhiwani,"H.B. Colony, Bhiwani - HSPCB",11-07-2026 14:00,28.806223,76.141105,NO2,7,9,9
India,Haryana,Bhiwani,"H.B. Colony, Bhiwani - HSPCB",11-07-2026 14:00,28.806223,76.141105,SO2,12,13,13
India,Delhi,Delhi,"Mandir Marg, Delhi - DPCC",11-07-2026 14:00,28.636429,77.201067,OZONE,3,20,12
India,Delhi,Delhi,"Pusa, Delhi - DPCC",11-07-2026 14:00,28.639652,77.146275,PM2.5,20,83,51
India,Gujarat,Ahmedabad,"SAC ISRO Satellite, Ahmedabad - IITM",11-07-2026 14:00,23.023389,72.515201,PM10,41,101,67
India,Gujarat,Ahmedabad,"SAC ISRO Satellite, Ahmedabad - IITM",11-07-2026 14:00,23.023389,72.515201,OZONE,3,14,7
India,Gujarat,Ahmedabad,"Maninagar, Ahmedabad - GPCB",11-07-2026 14:00,23.002657,72.591912,PM2.5,23,157,76
India,Gujarat,Ahmedabad,"Maninagar, Ahmedabad - GPCB",11-07-2026 14:00,23.002657,72.591912,NO2,34,35,34
India,Gujarat,Ahmedabad,"Maninagar, Ahmedabad - GPCB",11-07-2026 14:00,23.002657,72.591912,NH3,NA,NA,NA
India,Gujarat,Ahmedabad,"Maninagar, Ahmedabad - GPCB",11-07-2026 14:00,23.002657,72.591912,OZONE,20,23,21
India,Gujarat,Ahmedabad,"Chandkheda, Ahmedabad - IITM",11-07-2026 14:00,23.107969,72.574648,SO2,4,9,7
India,Gujarat,Ahmedabad,"SAC ISRO Bopal, Ahmedabad - IITM",11-07-2026 14:00,23.041137,72.456691,PM10,36,88,61
India,Gujarat,Ahmedabad,"SAC ISRO Bopal, Ahmedabad - IITM",11-07-2026 14:00,23.041137,72.456691,NH3,2,2,2
India,Gujarat,Ahmedabad,"Rakhial, Ahmedabad - IITM",11-07-2026 14:00,23.016834,72.625775,NO2,8,40,19
India,Haryana,Charkhi Dadri,"Mini Secretariat, Charkhi Dadri - HSPCB",11-07-2026 14:00,28.593883,76.270653,PM2.5,36,221,114
India,Haryana,Charkhi Dadri,"Mini Secretariat, Charkhi Dadri - HSPCB",11-07-2026 14:00,28.593883,76.270653,NH3,5,8,6
India,Haryana,Charkhi Dadri,"Mini Secretariat, Charkhi Dadri - HSPCB",11-07-2026 14:00,28.593883,76.270653,SO2,0,14,8
India,Haryana,Dharuhera,"Municipal Corporation Office, Dharuhera -  HSPCB",11-07-2026 14:00,28.2068,76.7997,NH3,NA,NA,NA
India,Haryana,Dharuhera,"Municipal Corporation Office, Dharuhera -  HSPCB",11-07-2026 14:00,28.2068,76.7997,SO2,NA,NA,NA
India,Haryana,Faridabad,"New Industrial Town, Faridabad - HSPCB",11-07-2026 14:00,28.39072,77.30059,NO2,NA,NA,NA
India,Haryana,Faridabad,"New Industrial Town, Faridabad - HSPCB",11-07-2026 14:00,28.39072,77.30059,NH3,NA,NA,NA
India,Haryana,Faridabad,"Sector 30, Faridabad - HSPCB",11-07-2026 14:00,28.4417,77.3217,PM2.5,45,92,85
India,Haryana,Faridabad,"Sector 11, Faridabad - HSPCB",11-07-2026 14:00,28.376058,77.315741,NH3,8,9,8
India,Haryana,Fatehabad,"Huda Sector, Fatehabad - HSPCB",11-07-2026 14:00,29.503664,75.467934,NO2,18,20,19
India,Delhi,Delhi,"Burari Crossing, Delhi - IITM",11-07-2026 14:00,28.7256504,77.2011573,PM2.5,2,89,47
India,Delhi,Delhi,"Burari Crossing, Delhi - IITM",11-07-2026 14:00,28.7256504,77.2011573,CO,40,52,45
India,Delhi,Delhi,"Burari Crossing, Delhi - IITM",11-07-2026 14:00,28.7256504,77.2011573,OZONE,16,75,37
India,Delhi,Delhi,"Narela, Delhi - DPCC",11-07-2026 14:00,28.822836,77.101981,NH3,5,12,8
India,Delhi,Delhi,"Narela, Delhi - DPCC",11-07-2026 14:00,28.822836,77.101981,SO2,15,22,17
India,Delhi,Delhi,"Narela, Delhi - DPCC",11-07-2026 14:00,28.822836,77.101981,CO,66,92,78
India,Delhi,Delhi,"JNU, Delhi - DPCC",11-07-2026 14:00,28.540721,77.168544,SO2,0,2,1
India,Delhi,Delhi,"CRRI Mathura Road, Delhi - IITM",11-07-2026 14:00,28.5512005,77.2735737,PM2.5,15,141,53
India,Delhi,Delhi,"CRRI Mathura Road, Delhi - IITM",11-07-2026 14:00,28.5512005,77.2735737,NH3,NA,NA,NA
India,Delhi,Delhi,"CRRI Mathura Road, Delhi - IITM",11-07-2026 14:00,28.5512005,77.2735737,CO,66,93,79
India,Delhi,Delhi,"Aya Nagar, Delhi - IITM",11-07-2026 14:00,28.4706914,77.1099364,PM10,47,291,99
India,Delhi,Delhi,"Aya Nagar, Delhi - IITM",11-07-2026 14:00,28.4706914,77.1099364,NH3,NA,NA,NA
India,Delhi,Delhi,"Punjabi Bagh, Delhi - DPCC",11-07-2026 14:00,28.674045,77.131023,PM2.5,13,177,65
India,Delhi,Delhi,"Punjabi Bagh, Delhi - DPCC",11-07-2026 14:00,28.674045,77.131023,CO,31,44,36
India,Delhi,Delhi,"Shadipur, Delhi - CPCB",11-07-2026 14:00,28.6514781,77.1473105,NH3,7,26,13
India,Delhi,Delhi,"Shadipur, Delhi - CPCB",11-07-2026 14:00,28.6514781,77.1473105,SO2,5,19,12
India,Delhi,Delhi,"Shadipur, Delhi - CPCB",11-07-2026 14:00,28.6514781,77.1473105,CO,40,55,48
India,Delhi,Delhi,"Shadipur, Delhi - CPCB",11-07-2026 14:00,28.6514781,77.1473105,OZONE,32,37,35
India,Delhi,Delhi,"IGNOU_Maidan Garhi, Delhi - DPCC",11-07-2026 14:00,28.493624,77.201159,NH3,0,17,3
India,Gujarat,Ankleshwar,"GIDC, Ankleshwar - GPCB",11-07-2026 14:00,21.613267,73.010555,OZONE,8,13,9
India,Gujarat,Bhavnagar,"Vidhyanagar, Bhavnagar - Nexteng Enviro",11-07-2026 14:00,21.755417,72.139056,NH3,3,4,4
India,Gujarat,Gandhinagar,"IIPHG Lekawada, Gandhinagar - IITM",11-07-2026 14:00,23.243639,72.68994,PM2.5,17,42,29
India,Gujarat,Gandhinagar,"GIFT City, Gandhinagar - IITM",11-07-2026 14:00,23.163798,72.677768,PM10,54,101,76
India,Delhi,Delhi,"IGI Airport (T3), Delhi - IITM",11-07-2026 14:00,28.5627763,77.1180053,CO,34,56,41
India,Delhi,Delhi,"Chandni Chowk, Delhi - IITM",11-07-2026 14:00,28.656756,77.227234,PM2.5,26,93,54
India,Delhi,Delhi,"Chandni Chowk, Delhi - IITM",11-07-2026 14:00,28.656756,77.227234,NO2,17,77,33
India,Delhi,Delhi,"Chandni Chowk, Delhi - IITM",11-07-2026 14:00,28.656756,77.227234,CO,51,59,53
India,Delhi,Delhi,"Mandir Marg, Delhi - DPCC",11-07-2026 14:00,28.636429,77.201067,PM10,81,405,144
India,Haryana,Gurugram,"NISE Gwal Pahari, Gurugram - IITM",11-07-2026 14:00,28.422681,77.148944,NO2,6,10,8
India,Haryana,Gurugram,"NISE Gwal Pahari, Gurugram - IITM",11-07-2026 14:00,28.422681,77.148944,NH3,NA,NA,NA
India,Haryana,Gurugram,"Sector-51, Gurugram - HSPCB",11-07-2026 14:00,28.4227,77.0667,SO2,NA,NA,NA
India,Haryana,Gurugram,"Vikas Sadan, Gurugram - HSPCB",11-07-2026 14:00,28.4501238,77.0263051,OZONE,1,4,3
India,Gujarat,Mehsana,"Sadanand Nagar, Mehsana - Nexteng Enviro",11-07-2026 14:00,23.59315,72.372792,CO,69,70,69
India,Gujarat,Rajkot,"Mavdi, Rajkot - Nexteng Enviro ",11-07-2026 14:00,22.248853,70.776774,PM2.5,26,97,67
India,Gujarat,Rajkot,"Mavdi, Rajkot - Nexteng Enviro ",11-07-2026 14:00,22.248853,70.776774,NO2,19,88,50
India,Gujarat,Rajkot,"Mavdi, Rajkot - Nexteng Enviro ",11-07-2026 14:00,22.248853,70.776774,NH3,0,1,1
India,Haryana,Mandikhera,"General Hospital, Mandikhera(Nuh) - HSPCB",11-07-2026 14:00,27.9002,76.9938,SO2,20,21,21
India,Haryana,Manesar,"Sector-2 IMT, Manesar - HSPCB",11-07-2026 14:00,28.360699,76.93609,PM10,51,131,96
India,Haryana,Manesar,"Sector-2 IMT, Manesar - HSPCB",11-07-2026 14:00,28.360699,76.93609,SO2,6,36,11
India,Haryana,Manesar,"Sector-2 IMT, Manesar - HSPCB",11-07-2026 14:00,28.360699,76.93609,OZONE,7,32,20
India,Haryana,Narnaul,"Shastri Nagar, Narnaul - HSPCB",11-07-2026 14:00,28.060249,76.113115,PM2.5,36,279,116
India,Haryana,Narnaul,"Shastri Nagar, Narnaul - HSPCB",11-07-2026 14:00,28.060249,76.113115,NH3,5,6,6
India,Haryana,Palwal,"Shyam Nagar, Palwal - HSPCB",11-07-2026 14:00,28.1485564,77.3320667,PM2.5,32,76,48
India,Haryana,Palwal,"Shyam Nagar, Palwal - HSPCB",11-07-2026 14:00,28.1485564,77.3320667,PM10,66,103,77
India,Haryana,Palwal,"Shyam Nagar, Palwal - HSPCB",11-07-2026 14:00,28.1485564,77.3320667,NH3,6,11,7
India,Haryana,Palwal,"Shyam Nagar, Palwal - HSPCB",11-07-2026 14:00,28.1485564,77.3320667,OZONE,3,3,3
India,Haryana,Panchkula,"Sector-6, Panchkula - HSPCB ",11-07-2026 14:00,30.7057778,76.85318056,PM10,NA,NA,NA
India,Haryana,Panchkula,"Sector-6, Panchkula - HSPCB ",11-07-2026 14:00,30.7057778,76.85318056,NH3,NA,NA,NA
India,Haryana,Panchkula,"Sector-6, Panchkula - HSPCB ",11-07-2026 14:00,30.7057778,76.85318056,OZONE,18,25,22
India,Haryana,Panipat,"Sector-18, Panipat - HSPCB",11-07-2026 14:00,29.432304,76.972765,NH3,7,12,9
India,Haryana,Panipat,"Sector-18, Panipat - HSPCB",11-07-2026 14:00,29.432304,76.972765,CO,38,41,39
India,Haryana,Panipat,"Sector-18, Panipat - HSPCB",11-07-2026 14:00,29.432304,76.972765,OZONE,29,31,30
India,Haryana,Sonipat,"Murthal, Sonipat - HSPCB",11-07-2026 14:00,29.0272,77.0621,SO2,23,33,27
India,Karnataka,Chikkamagaluru,"Kalyana Nagara, Chikkamagaluru - KSPCB",11-07-2026 14:00,13.328028,75.797056,OZONE,23,23,23
India,Karnataka,Dharwad,"Kalabhavan, Dharwad - KSPCB",11-07-2026 14:00,15.459706,75.008381,NO2,26,30,30
India,Karnataka,Dharwad,"Kalabhavan, Dharwad - KSPCB",11-07-2026 14:00,15.459706,75.008381,NH3,7,8,8
India,Karnataka,Dharwad,"Kalabhavan, Dharwad - KSPCB",11-07-2026 14:00,15.459706,75.008381,OZONE,30,30,30
India,Karnataka,Gadag,"Panchal Nagar, Gadag - KSPCB",11-07-2026 14:00,15.411456,75.638133,NH3,3,5,4
India,Karnataka,Gadag,"Panchal Nagar, Gadag - KSPCB",11-07-2026 14:00,15.411456,75.638133,SO2,23,36,29
India,Karnataka,Hubballi,"Lingaraj Nagar, Hubballi - KSPCB",11-07-2026 14:00,15.3714823,75.1160168,PM10,58,62,61
India,Karnataka,Hubballi,"Lingaraj Nagar, Hubballi - KSPCB",11-07-2026 14:00,15.3714823,75.1160168,NH3,2,3,3
India,Karnataka,Kalaburagi,"Mahatma Basaveswar Colony, Kalaburgi - KSPCB",11-07-2026 14:00,17.336318,76.847397,PM2.5,NA,NA,NA
India,Karnataka,Kalaburagi,"Mahatma Basaveswar Colony, Kalaburgi - KSPCB",11-07-2026 14:00,17.336318,76.847397,CO,50,54,51
India,Karnataka,Karwar,"KHB Colony, Karwar - KSPCB",11-07-2026 14:00,14.816666,74.141003,CO,NA,NA,NA
India,Karnataka,Karwar,"KHB Colony, Karwar - KSPCB",11-07-2026 14:00,14.816666,74.141003,OZONE,NA,NA,NA
India,Karnataka,Madikeri,"Stuart Hill, Madikeri - KSPCB",11-07-2026 14:00,12.415911,75.73505,CO,10,23,14
India,Karnataka,Mangalore,"Kadri, Mangalore - KSPCB",11-07-2026 14:00,12.88925,74.853,SO2,NA,NA,NA
India,Karnataka,Mangalore,"Kadri, Mangalore - KSPCB",11-07-2026 14:00,12.88925,74.853,CO,NA,NA,NA
India,Karnataka,Mysuru,"Hebbal 1st Stage, Mysuru - KSPCB",11-07-2026 14:00,12.21041,76.37376,PM10,39,101,62
India,Karnataka,Ramanagara,"Vijay Nagar, Ramanagara - KSPCB",11-07-2026 14:00,12.733409,77.298051,NO2,NA,NA,NA
India,Karnataka,Ramanagara,"Vijay Nagar, Ramanagara - KSPCB",11-07-2026 14:00,12.733409,77.298051,NH3,NA,NA,NA
India,Karnataka,Shivamogga,"Vinoba Nagara, Shivamogga - KSPCB",11-07-2026 14:00,13.94,75.555917,PM2.5,23,41,36
India,Karnataka,Vijayapura,"Ibrahimpur, Vijayapura - KSPCB",11-07-2026 14:00,16.802639,75.722694,PM10,42,43,43
India,Karnataka,Vijayapura,"Ibrahimpur, Vijayapura - KSPCB",11-07-2026 14:00,16.802639,75.722694,CO,17,27,21
India,Karnataka,Yadgir,"Collector Office, Yadgir - KSPCB",11-07-2026 14:00,16.7602,77.1428,NO2,NA,NA,NA
India,Karnataka,Yadgir,"Collector Office, Yadgir - KSPCB",11-07-2026 14:00,16.7602,77.1428,NH3,NA,NA,NA
India,Kerala,Kannur,"Thavakkara, Kannur - Kerala PCB",11-07-2026 14:00,11.875,75.3732,PM10,54,57,55
India,Kerala,Kannur,"Thavakkara, Kannur - Kerala PCB",11-07-2026 14:00,11.875,75.3732,NO2,11,12,12
India,Kerala,Kannur,"Thavakkara, Kannur - Kerala PCB",11-07-2026 14:00,11.875,75.3732,NH3,1,1,1
India,Kerala,Kannur,"Thavakkara, Kannur - Kerala PCB",11-07-2026 14:00,11.875,75.3732,SO2,0,0,0
India,Kerala,Thiruvananthapuram,"Plammoodu, Thiruvananthapuram - Kerala PCB",11-07-2026 14:00,8.5149093,76.9435879,SO2,6,33,17
India,Jharkhand,Dhanbad,"Sardar Patel Nagar, Dhanbad - JSPCB",11-07-2026 14:00,23.80569,86.44268,CO,1,86,36
India,Karnataka,Bagalkot,"Vidayagiri, Bagalkot - KSPCB",11-07-2026 14:00,16.172806,75.659694,NO2,10,11,10
India,Karnataka,Bagalkot,"Vidayagiri, Bagalkot - KSPCB",11-07-2026 14:00,16.172806,75.659694,SO2,10,10,10
India,Karnataka,Bagalkot,"Vidayagiri, Bagalkot - KSPCB",11-07-2026 14:00,16.172806,75.659694,CO,24,35,30
India,Karnataka,Bengaluru,"Silk Board, Bengaluru - KSPCB",11-07-2026 14:00,12.917348,77.622813,PM2.5,23,52,38
India,Karnataka,Bengaluru,"Silk Board, Bengaluru - KSPCB",11-07-2026 14:00,12.917348,77.622813,NH3,3,4,4
India,Karnataka,Bengaluru,"Silk Board, Bengaluru - KSPCB",11-07-2026 14:00,12.917348,77.622813,OZONE,14,21,17
India,Karnataka,Bengaluru,"Hombegowda Nagar, Bengaluru - KSPCB",11-07-2026 14:00,12.938539,77.5901,PM2.5,13,43,29
India,Karnataka,Bengaluru,"Hombegowda Nagar, Bengaluru - KSPCB",11-07-2026 14:00,12.938539,77.5901,PM10,23,72,49
India,Karnataka,Bengaluru,"Hombegowda Nagar, Bengaluru - KSPCB",11-07-2026 14:00,12.938539,77.5901,NO2,11,34,19
India,Karnataka,Bengaluru,"Hombegowda Nagar, Bengaluru - KSPCB",11-07-2026 14:00,12.938539,77.5901,SO2,3,9,6
India,Karnataka,Bengaluru,"Sanegurava Halli, Bengaluru - KSPCB",11-07-2026 14:00,12.990328,77.5431385,NH3,NA,NA,NA
India,Karnataka,Bengaluru,"City Railway Station, Bengaluru - KSPCB",11-07-2026 14:00,12.9756843,77.5660749,OZONE,NA,NA,NA
India,Karnataka,Bengaluru,"Hebbal, Bengaluru - KSPCB",11-07-2026 14:00,13.029152,77.585901,CO,10,19,15
India,Karnataka,Bengaluru,"Jigani, Bengaluru - KSPCB",11-07-2026 14:00,12.7816279,77.6299145,SO2,18,18,18
India,Karnataka,Chamarajanagar,"Urban, Chamarajanagar - KSPCB",11-07-2026 14:00,11.55358,76.55521,CO,22,23,23
India,Karnataka,Chamarajanagar,"Urban, Chamarajanagar - KSPCB",11-07-2026 14:00,11.55358,76.55521,OZONE,26,26,26
India,Karnataka,Chikkaballapur,"Chikkaballapur Rural, Chikkaballapur - KSPCB",11-07-2026 14:00,13.428828,77.731418,PM10,30,110,53
India,Karnataka,Chikkaballapur,"Chikkaballapur Rural, Chikkaballapur - KSPCB",11-07-2026 14:00,13.428828,77.731418,OZONE,40,53,43
India,Haryana,Yamuna Nagar,"Gobind Pura, Yamuna Nagar - HSPCB",11-07-2026 14:00,30.1480566,77.2893471,NO2,33,51,41
India,Haryana,Yamuna Nagar,"Gobind Pura, Yamuna Nagar - HSPCB",11-07-2026 14:00,30.1480566,77.2893471,NH3,9,18,15
India,Haryana,Yamuna Nagar,"Gobind Pura, Yamuna Nagar - HSPCB",11-07-2026 14:00,30.1480566,77.2893471,SO2,10,15,13
India,Himachal Pradesh,Baddi,"HIMUDA Complex Phase-1, Baddi - HPPCB",11-07-2026 14:00,30.943887,76.801991,PM2.5,2,180,70
India,Jammu and Kashmir,Pampore,"Khrew, Pampore - JKPCC",11-07-2026 14:00,34.031606,75.009712,PM10,17,66,43
India,Jammu and Kashmir,Pampore,"Khrew, Pampore - JKPCC",11-07-2026 14:00,34.031606,75.009712,SO2,0,1,0
India,Jammu and Kashmir,Pampore,"Khrew, Pampore - JKPCC",11-07-2026 14:00,34.031606,75.009712,OZONE,NA,NA,NA
India,Haryana,Gurugram,"Teri Gram, Gurugram - HSPCB",11-07-2026 14:00,28.4275,77.1465,PM10,45,254,142
India,Haryana,Hisar,"Urban Estate-II, Hisar - HSPCB",11-07-2026 14:00,29.14056,75.744941,PM10,31,173,77
India,Haryana,Hisar,"Urban Estate-II, Hisar - HSPCB",11-07-2026 14:00,29.14056,75.744941,CO,68,68,68
India,Haryana,Jind,"Police Lines, Jind - HSPCB",11-07-2026 14:00,29.307814,76.337619,PM2.5,25,320,92
India,Karnataka,Bengaluru,"BWSSB Kadabesanahalli, Bengaluru - CPCB",11-07-2026 14:00,12.9352049,77.6814488,SO2,3,5,4
India,Karnataka,Bengaluru,"BWSSB Kadabesanahalli, Bengaluru - CPCB",11-07-2026 14:00,12.9352049,77.6814488,OZONE,14,28,21
India,Karnataka,Bengaluru,"Jayanagar 5th Block, Bengaluru - KSPCB",11-07-2026 14:00,12.920984,77.584908,NH3,1,1,1
India,Haryana,Kaithal,"Rishi Nagar, Kaithal - HSPCB",11-07-2026 14:00,29.8006,76.4155,PM10,39,94,69
India,Haryana,Kaithal,"Rishi Nagar, Kaithal - HSPCB",11-07-2026 14:00,29.8006,76.4155,NO2,21,27,23
India,Haryana,Kaithal,"Rishi Nagar, Kaithal - HSPCB",11-07-2026 14:00,29.8006,76.4155,NH3,4,6,5
India,Madhya Pradesh,Sagar,"Civil Lines, Sagar - MPPCB",11-07-2026 14:00,23.838586,78.759431,PM2.5,21,91,42
India,Madhya Pradesh,Sagar,"Civil Lines, Sagar - MPPCB",11-07-2026 14:00,23.838586,78.759431,OZONE,17,31,23
India,Madhya Pradesh,Satna,"Bandhavgar Colony, Satna - Birla Cement",11-07-2026 14:00,24.58434363,80.8549414,SO2,17,20,18
India,Madhya Pradesh,Singrauli,"Suryakiran Bhawan NCL, Singrauli - MPPCB",11-07-2026 14:00,24.10897,82.64558,PM2.5,10,260,56
India,Madhya Pradesh,Singrauli,"Suryakiran Bhawan NCL, Singrauli - MPPCB",11-07-2026 14:00,24.10897,82.64558,SO2,33,40,37
India,Madhya Pradesh,Singrauli,"Suryakiran Bhawan NCL, Singrauli - MPPCB",11-07-2026 14:00,24.10897,82.64558,CO,4,10,5
India,Madhya Pradesh,Ujjain,"Mahashweta Nagar, Ujjain - MPPCB",11-07-2026 14:00,23.1633321,75.800225,PM2.5,6,99,41
India,Maharashtra,Ahmednagar,"Tarakpur, Ahmednagar - MPCB",11-07-2026 14:00,19.10122,74.73339,NH3,NA,NA,NA
India,Maharashtra,Ahmednagar,"Tarakpur, Ahmednagar - MPCB",11-07-2026 14:00,19.10122,74.73339,SO2,NA,NA,NA
India,Maharashtra,Ahmednagar,"Tarakpur, Ahmednagar - MPCB",11-07-2026 14:00,19.10122,74.73339,OZONE,17,40,30
India,Maharashtra,Akola,"Ramdaspeth, Akola - MPCB",11-07-2026 14:00,20.719516,77.000253,PM2.5,18,33,26
India,Maharashtra,Aurangabad,"More Chowk Waluj, Aurangabad - MPCB",11-07-2026 14:00,19.8389439,75.244448,PM2.5,45,52,49
India,Maharashtra,Aurangabad,"More Chowk Waluj, Aurangabad - MPCB",11-07-2026 14:00,19.8389439,75.244448,OZONE,13,35,25
India,Maharashtra,Aurangabad,"Rachnakar Colony, Aurangabad - MPCB",11-07-2026 14:00,19.863756,75.321188,NO2,11,28,18
India,Maharashtra,Badlapur,"Katrap, Badlapur - MPCB",11-07-2026 14:00,19.16485,73.23409,CO,17,20,19
India,Maharashtra,Beed,"Bir, Beed - MPCB",11-07-2026 14:00,18.988474,75.753873,PM2.5,22,38,30
India,Maharashtra,Belapur,"CBD Belapur, Belapur - MPCB",11-07-2026 14:00,19.0243902,73.0406721,NO2,10,22,18
India,Maharashtra,Belapur,"CBD Belapur, Belapur - MPCB",11-07-2026 14:00,19.0243902,73.0406721,NH3,1,6,3
India,Maharashtra,Belapur,"CBD Belapur, Belapur - MPCB",11-07-2026 14:00,19.0243902,73.0406721,SO2,5,11,7
India,Maharashtra,Bhiwandi,"Gokul Nagar, Bhiwandi - MPCB",11-07-2026 14:00,19.309073,73.057223,SO2,1,6,4
India,Maharashtra,Boisar,"Khaira, Boisar - MPCB",11-07-2026 14:00,19.786089,72.757971,CO,5,14,10
India,Maharashtra,Chandrapur,"MIDC Khutala, Chandrapur - MPCB",11-07-2026 14:00,19.9775302,79.2337086,PM10,33,108,61
India,Madhya Pradesh,Katni,"Gole Bazar, Katni - MPPCB",11-07-2026 14:00,23.50016,80.23284,NH3,2,3,3
India,Madhya Pradesh,Maihar,"Sahilara, Maihar - KJS Cements",11-07-2026 14:00,24.2613009,80.7231783,SO2,14,15,15
India,Madhya Pradesh,Maihar,"Sahilara, Maihar - KJS Cements",11-07-2026 14:00,24.2613009,80.7231783,OZONE,NA,NA,NA
India,Madhya Pradesh,Mandideep,"Sector-D Industrial Area, Mandideep - MPPCB",11-07-2026 14:00,23.10844,77.511428,NO2,19,34,24
India,Madhya Pradesh,Pithampur,"Sector-2 Industrial Area, Pithampur - MPPCB",11-07-2026 14:00,22.624758,75.675238,PM2.5,42,90,65
India,Madhya Pradesh,Pithampur,"Sector-2 Industrial Area, Pithampur - MPPCB",11-07-2026 14:00,22.624758,75.675238,OZONE,29,43,34
India,Madhya Pradesh,Ratlam,"Shasthri Nagar, Ratlam - IPCA Lab",11-07-2026 14:00,23.331731,75.045981,NO2,35,37,36
India,Madhya Pradesh,Ratlam,"Shasthri Nagar, Ratlam - IPCA Lab",11-07-2026 14:00,23.331731,75.045981,NH3,NA,NA,NA
India,Madhya Pradesh,Bhopal,"T T Nagar, Bhopal - MPPCB",11-07-2026 14:00,23.233584,77.400574,NO2,13,29,19
India,Madhya Pradesh,Bhopal,"T T Nagar, Bhopal - MPPCB",11-07-2026 14:00,23.233584,77.400574,CO,21,28,25
India,Madhya Pradesh,Bhopal,"Idgah Hills, Bhopal - MPPCB",11-07-2026 14:00,23.264759,77.381568,NH3,2,3,3
India,Madhya Pradesh,Damoh,"Shrivastav Colony, Damoh - MPPCB",11-07-2026 14:00,23.81748678,79.446246,PM10,NA,NA,NA
India,Madhya Pradesh,Damoh,"Shrivastav Colony, Damoh - MPPCB",11-07-2026 14:00,23.81748678,79.446246,OZONE,NA,NA,NA
India,Madhya Pradesh,Dewas,"Bhopal Chauraha, Dewas - MPPCB",11-07-2026 14:00,22.9682591,76.064118,PM10,62,112,95
India,Madhya Pradesh,Gwalior,"Deen Dayal Nagar, Gwalior - MPPCB",11-07-2026 14:00,26.259242,78.216432,OZONE,6,31,19
India,Kerala,Thiruvananthapuram,"Kariavattom, Thiruvananthapuram - Kerala PCB",11-07-2026 14:00,8.5637,76.8865,PM2.5,40,45,43
India,Kerala,Thrissur,"Corporation Ground, Thrissur - Kerala PCB",11-07-2026 14:00,10.5324,76.2159,PM2.5,40,52,47
India,Kerala,Thrissur,"Corporation Ground, Thrissur - Kerala PCB",11-07-2026 14:00,10.5324,76.2159,NO2,6,8,7
India,Kerala,Thrissur,"Corporation Ground, Thrissur - Kerala PCB",11-07-2026 14:00,10.5324,76.2159,OZONE,29,29,29
India,Madhya Pradesh,Bhopal,"Paryavaran Parisar, Bhopal - MPPCB",11-07-2026 14:00,23.210494,77.425409,PM2.5,12,43,28
India,Madhya Pradesh,Bhopal,"Paryavaran Parisar, Bhopal - MPPCB",11-07-2026 14:00,23.210494,77.425409,SO2,5,13,11
India,Madhya Pradesh,Gwalior,"City Center, Gwalior - MPPCB",11-07-2026 14:00,26.203442,78.193251,NO2,5,24,12
India,Madhya Pradesh,Indore,"Maguda Nagar, Indore - IMC",11-07-2026 14:00,22.7524,75.8872,PM10,20,40,31
India,Madhya Pradesh,Indore,"Maguda Nagar, Indore - IMC",11-07-2026 14:00,22.7524,75.8872,SO2,12,19,18
India,Madhya Pradesh,Indore,"Chhoti Gwaltoli, Indore - MPPCB",11-07-2026 14:00,22.431,75.5213,NH3,4,5,4
India,Madhya Pradesh,Indore,"Chhoti Gwaltoli, Indore - MPPCB",11-07-2026 14:00,22.431,75.5213,SO2,17,23,20
India,Madhya Pradesh,Indore,"Airport Area, Indore - IMC",11-07-2026 14:00,22.7289,75.8076,PM2.5,3,80,51
India,Maharashtra,Dhule,"Deopur, Dhule - MPCB",11-07-2026 14:00,20.918946,74.776388,CO,3,25,15
India,Maharashtra,Dombivli,"Kalu Nagar, Dombivli - MPCB",11-07-2026 14:00,19.2268427,73.0788456,PM10,15,28,22
India,Maharashtra,Hingoli,"Ashta Vinayak Nagar, Hingoli - MPCB",11-07-2026 14:00,19.710842,77.151824,SO2,3,5,4
India,Maharashtra,Hingoli,"Ashta Vinayak Nagar, Hingoli - MPCB",11-07-2026 14:00,19.710842,77.151824,OZONE,20,54,32
India,Madhya Pradesh,Jabalpur,"Govindh Bhavan Colony, Jabalpur - JMC",11-07-2026 14:00,23.163174,79.973061,NH3,3,4,3
India,Madhya Pradesh,Jabalpur,"Gupteshwar, Jabalpur - JMC",11-07-2026 14:00,23.142888,79.916147,PM2.5,34,48,39
India,Madhya Pradesh,Jabalpur,"Suhagi, Jabalpur - JMC",11-07-2026 14:00,23.218135,79.95777,SO2,1,5,3
India,Maharashtra,Chandrapur,"MIDC Khutala, Chandrapur - MPCB",11-07-2026 14:00,19.9775302,79.2337086,NH3,NA,NA,NA
India,Maharashtra,Dhule,"Deopur, Dhule - MPCB",11-07-2026 14:00,20.918946,74.776388,PM2.5,NA,NA,NA
India,Maharashtra,Dhule,"Deopur, Dhule - MPCB",11-07-2026 14:00,20.918946,74.776388,NO2,3,14,11
India,Maharashtra,Jalna,"Old MIDC, Jalna - MPCB",11-07-2026 14:00,19.854616,75.905894,CO,10,14,12
India,Maharashtra,Kalyan,"Pimpleshwar Mandir, Kalyan - MPCB",11-07-2026 14:00,19.192056,72.9585188,PM2.5,23,74,45
India,Maharashtra,Kalyan,"Khadakpada, Kalyan - MPCB",11-07-2026 14:00,19.25292,73.142019,NO2,36,37,36
India,Maharashtra,Kalyan,"Khadakpada, Kalyan - MPCB",11-07-2026 14:00,19.25292,73.142019,NH3,1,1,1
India,Maharashtra,Kolhapur,"Sinchan Bhavan, Kolhapur - MPCB",11-07-2026 14:00,16.7143745,74.2426398,NH3,2,3,2
India,Maharashtra,Kolhapur,"Sinchan Bhavan, Kolhapur - MPCB",11-07-2026 14:00,16.7143745,74.2426398,SO2,0,5,1
India,Maharashtra,Kolhapur,"Shivaji University, Kolhapur - MPCB",11-07-2026 14:00,16.6870449,74.2505872,PM2.5,17,40,28
India,Maharashtra,Kolhapur,"Shivaji University, Kolhapur - MPCB",11-07-2026 14:00,16.6870449,74.2505872,PM10,19,55,39
India,Maharashtra,Kolhapur,"Shivaji University, Kolhapur - MPCB",11-07-2026 14:00,16.6870449,74.2505872,SO2,0,2,2
India,Maharashtra,Kolhapur,"Shivaji University, Kolhapur - MPCB",11-07-2026 14:00,16.6870449,74.2505872,CO,6,16,13
India,Maharashtra,Mahad,"Kamble Tarf Birwadi, Mahad - MPCB",11-07-2026 14:00,18.1023399,73.4783687,NO2,8,17,12
India,Maharashtra,Mira-Bhayandar,"Bhayandar West, Mira-Bhayandar - MPCB",11-07-2026 14:00,19.296481,72.840923,PM10,23,44,32
India,Maharashtra,Nashik,"Gangapur Road, Nashik - MPCB",11-07-2026 14:00,20.0073285,73.7762427,NO2,NA,NA,NA
India,Maharashtra,Nashik,"Pandav Nagari, Nashik - MPCB",11-07-2026 14:00,19.9591346,73.7788008,NH3,1,2,1
India,Maharashtra,Nashik,"Pandav Nagari, Nashik - MPCB",11-07-2026 14:00,19.9591346,73.7788008,SO2,0,6,2
India,Maharashtra,Nashik,"Pandav Nagari, Nashik - MPCB",11-07-2026 14:00,19.9591346,73.7788008,CO,8,13,11
India,Maharashtra,Nashik,"Hirawadi, Nashik - MPCB",11-07-2026 14:00,20.021503,73.813844,SO2,1,46,6
India,Maharashtra,Nashik,"MIDC Ambad, Nashik - MPCB",11-07-2026 14:00,19.95022,73.73148,NO2,2,6,4
India,Maharashtra,Nashik,"MIDC Ambad, Nashik - MPCB",11-07-2026 14:00,19.95022,73.73148,NH3,2,3,3
India,Maharashtra,Nashik,"MIDC Ambad, Nashik - MPCB",11-07-2026 14:00,19.95022,73.73148,SO2,3,4,4
India,Maharashtra,Navi Mumbai,"Nerul, Navi Mumbai - MPCB",11-07-2026 14:00,19.008751,73.01662,PM2.5,3,28,15
India,Maharashtra,Navi Mumbai,"Nerul, Navi Mumbai - MPCB",11-07-2026 14:00,19.008751,73.01662,NH3,1,1,1
India,Maharashtra,Navi Mumbai,"Sector-2E Kalamboli, Navi Mumbai - MPCB",11-07-2026 14:00,19.02579,73.10297,CO,14,15,15
India,Maharashtra,Nagpur,"Mahal, Nagpur - MPCB",11-07-2026 14:00,21.14472,79.107595,SO2,4,25,10
India,Maharashtra,Nagpur,"Mahal, Nagpur - MPCB",11-07-2026 14:00,21.14472,79.107595,OZONE,7,20,13
India,Maharashtra,Nagpur,"Ambazari, Nagpur - MPCB",11-07-2026 14:00,21.121801,79.04952,CO,9,17,12
India,Maharashtra,Nagpur,"Ram Nagar, Nagpur - MPCB",11-07-2026 14:00,21.143383,79.048912,NO2,7,20,10
India,Maharashtra,Nagpur,"Ram Nagar, Nagpur - MPCB",11-07-2026 14:00,21.143383,79.048912,SO2,1,5,2
India,Maharashtra,Nagpur,"Ram Nagar, Nagpur - MPCB",11-07-2026 14:00,21.143383,79.048912,OZONE,13,21,16
India,Maharashtra,Nagpur,"Opp GPO Civil Lines, Nagpur - MPCB",11-07-2026 14:00,21.152875,79.0517531,PM2.5,20,62,41
India,Maharashtra,Nanded,"Sneh Nagar, Nanded - MPCB",11-07-2026 14:00,19.173852,77.296291,PM10,54,88,71
India,Maharashtra,Nanded,"Sneh Nagar, Nanded - MPCB",11-07-2026 14:00,19.173852,77.296291,SO2,1,4,2
India,Maharashtra,Mumbai,"Shivaji Nagar, Mumbai - BMC",11-07-2026 14:00,19.060498,72.923356,NO2,5,19,12
India,Maharashtra,Mumbai,"Shivaji Nagar, Mumbai - BMC",11-07-2026 14:00,19.060498,72.923356,NH3,1,6,4
India,Maharashtra,Mumbai,"Shivaji Nagar, Mumbai - BMC",11-07-2026 14:00,19.060498,72.923356,SO2,0,42,3
India,Maharashtra,Mumbai,"Mazgaon, Mumbai - IITM",11-07-2026 14:00,18.96702,72.84214,NO2,23,26,24
India,Maharashtra,Mumbai,"Mazgaon, Mumbai - IITM",11-07-2026 14:00,18.96702,72.84214,CO,33,61,50
India,Maharashtra,Mumbai,"Mindspace-Malad West, Mumbai - MPCB",11-07-2026 14:00,19.1878657,72.8304069,PM2.5,11,12,12
India,Maharashtra,Mumbai,"Chakala-Andheri East, Mumbai - IITM",11-07-2026 14:00,19.11074,72.86084,PM2.5,12,30,20
India,Maharashtra,Mumbai,"Ghatkopar, Mumbai - BMC",11-07-2026 14:00,19.083694,72.920967,NH3,3,5,4
India,Maharashtra,Mumbai,"Bandra Kurla Complex, Mumbai - IITM",11-07-2026 14:00,19.053536,72.84643,PM10,56,76,68
India,Maharashtra,Mumbai,"Kurla, Mumbai - MPCB",11-07-2026 14:00,19.0863,72.8888,PM10,69,126,96
India,Maharashtra,Mumbai,"Siddharth Nagar-Worli, Mumbai - IITM",11-07-2026 14:00,19.000083,72.813993,PM10,57,72,62
India,Maharashtra,Mumbai,"Siddharth Nagar-Worli, Mumbai - IITM",11-07-2026 14:00,19.000083,72.813993,SO2,NA,NA,NA
India,Maharashtra,Mumbai,"Powai, Mumbai - MPCB",11-07-2026 14:00,19.1375,72.915056,PM10,8,24,15
India,Maharashtra,Navi Mumbai,"Mahape, Navi Mumbai - MPCB",11-07-2026 14:00,19.1135051,73.008978,NO2,42,44,43
India,Maharashtra,Navi Mumbai,"Kopripada-Vashi, Navi Mumbai - MPCB",11-07-2026 14:00,19.090337,73.014232,PM2.5,9,29,17
India,Maharashtra,Parbhani,"Masoom Colony, Parbhani - MPCB",11-07-2026 14:00,19.265594,76.761463,OZONE,6,9,8
India,Maharashtra,Pimpri-Chinchwad,"Savta Mali Nagar, Pimpri-Chinchwad - IITM",11-07-2026 14:00,18.614767,73.799516,PM2.5,11,32,20
India,Maharashtra,Pimpri-Chinchwad,"Savta Mali Nagar, Pimpri-Chinchwad - IITM",11-07-2026 14:00,18.614767,73.799516,NH3,NA,NA,NA
India,Maharashtra,Mira-Bhayandar,"Bhayandar West, Mira-Bhayandar - MPCB",11-07-2026 14:00,19.296481,72.840923,CO,13,14,14
India,Maharashtra,Mumbai,"Sewri, Mumbai - BMC",11-07-2026 14:00,19.000084,72.85673,PM2.5,NA,NA,NA
India,Maharashtra,Mumbai,"Sion, Mumbai - MPCB",11-07-2026 14:00,19.047,72.8746,PM10,NA,NA,NA
India,Maharashtra,Mumbai,"Sion, Mumbai - MPCB",11-07-2026 14:00,19.047,72.8746,SO2,NA,NA,NA
India,Maharashtra,Mumbai,"Sion, Mumbai - MPCB",11-07-2026 14:00,19.047,72.8746,CO,17,19,18
India,Maharashtra,Mumbai,"Chhatrapati Shivaji Intl. Airport (T2), Mumbai - MPCB",11-07-2026 14:00,19.10078,72.87462,OZONE,NA,NA,NA
India,Maharashtra,Pimpri-Chinchwad,"Gavalinagar, Pimpri Chinchwad - MPCB",11-07-2026 14:00,18.63673,73.82487,NH3,NA,NA,NA
India,Maharashtra,Pimpri-Chinchwad,"Gavalinagar, Pimpri Chinchwad - MPCB",11-07-2026 14:00,18.63673,73.82487,SO2,1,2,1
India,Maharashtra,Pimpri-Chinchwad,"Gavalinagar, Pimpri Chinchwad - MPCB",11-07-2026 14:00,18.63673,73.82487,CO,7,10,9
India,Maharashtra,Pimpri-Chinchwad,"Gavalinagar, Pimpri Chinchwad - MPCB",11-07-2026 14:00,18.63673,73.82487,OZONE,12,19,16
India,Maharashtra,Pimpri-Chinchwad,"Transport Nagar-Nigdi, Pune - IITM",11-07-2026 14:00,18.664282,73.763966,PM10,47,65,54
India,Maharashtra,Mumbai,"Byculla, Mumbai - BMC",11-07-2026 14:00,18.9767,72.838,NH3,1,2,2
India,Maharashtra,Mumbai,"Byculla, Mumbai - BMC",11-07-2026 14:00,18.9767,72.838,OZONE,4,6,5
India,Maharashtra,Mumbai,"Bandra Kurla Complex, Mumbai - MPCB",11-07-2026 14:00,19.065931,72.862131,PM2.5,NA,NA,NA
India,Maharashtra,Mumbai,"Bandra Kurla Complex, Mumbai - MPCB",11-07-2026 14:00,19.065931,72.862131,SO2,NA,NA,NA
India,Maharashtra,Thane,"Upvan Fort, Thane - MPCB",11-07-2026 14:00,19.222279,72.957979,NO2,10,16,13
India,Maharashtra,Ulhasnagar,"Sidhi Vinayak Nagar, Ulhasnagar - MPCB",11-07-2026 14:00,19.235581,73.159121,SO2,4,7,6
India,Maharashtra,Ulhasnagar,"Sidhi Vinayak Nagar, Ulhasnagar - MPCB",11-07-2026 14:00,19.235581,73.159121,CO,14,16,15
India,Maharashtra,Ulhasnagar,"Vithalwadi, Ulhasnagar - MPCB",11-07-2026 14:00,19.2307571,73.155192,PM10,51,116,86
India,Maharashtra,Ulhasnagar,"Vithalwadi, Ulhasnagar - MPCB",11-07-2026 14:00,19.2307571,73.155192,NH3,0,1,1
India,Maharashtra,Ulhasnagar,"Vithalwadi, Ulhasnagar - MPCB",11-07-2026 14:00,19.2307571,73.155192,CO,12,14,13
India,Maharashtra,Virar,"Bolinj, Virar - MPCB",11-07-2026 14:00,19.445821,72.7988231,PM2.5,16,78,64
India,Maharashtra,Virar,"Bolinj, Virar - MPCB",11-07-2026 14:00,19.445821,72.7988231,NO2,12,22,18
India,Maharashtra,Virar,"Bolinj, Virar - MPCB",11-07-2026 14:00,19.445821,72.7988231,CO,40,54,48
India,Meghalaya,Shillong,"Lumpyngngad, Shillong - Meghalaya PCB",11-07-2026 14:00,25.5586,91.8985,NH3,0,0,0
India,Mizoram,Aizawl,"Sikulpuikawn, Aizawl - Mizoram PCB",11-07-2026 14:00,23.7176342,92.7192841,OZONE,6,7,6
India,Nagaland,Kohima,"PWD Junction, Kohima - NPCB",11-07-2026 14:00,25.6635413,94.0989878,PM2.5,1,47,21
India,Nagaland,Kohima,"PWD Junction, Kohima - NPCB",11-07-2026 14:00,25.6635413,94.0989878,PM10,5,38,18
India,Nagaland,Kohima,"PWD Junction, Kohima - NPCB",11-07-2026 14:00,25.6635413,94.0989878,NO2,3,4,3
India,Maharashtra,Pimpri-Chinchwad,"Transport Nagar-Nigdi, Pune - IITM",11-07-2026 14:00,18.664282,73.763966,SO2,NA,NA,NA
India,Maharashtra,Pimpri-Chinchwad,"Transport Nagar-Nigdi, Pune - IITM",11-07-2026 14:00,18.664282,73.763966,CO,36,44,42
India,Maharashtra,Pimpri-Chinchwad,"Thergaon, Pimpri Chinchwad - MPCB",11-07-2026 14:00,18.616318,73.765797,PM2.5,NA,NA,NA
India,Maharashtra,Pimpri-Chinchwad,"Thergaon, Pimpri Chinchwad - MPCB",11-07-2026 14:00,18.616318,73.765797,PM10,24,57,40
India,Maharashtra,Pimpri-Chinchwad,"Thergaon, Pimpri Chinchwad - MPCB",11-07-2026 14:00,18.616318,73.765797,NO2,5,12,8
India,Maharashtra,Pimpri-Chinchwad,"Thergaon, Pimpri Chinchwad - MPCB",11-07-2026 14:00,18.616318,73.765797,OZONE,10,13,12
India,Maharashtra,Pimpri-Chinchwad,"Park Street Wakad, Pimpri Chinchwad - MPCB",11-07-2026 14:00,18.59051,73.77946,NO2,6,19,11
India,Maharashtra,Pimpri-Chinchwad,"Park Street Wakad, Pimpri Chinchwad - MPCB",11-07-2026 14:00,18.59051,73.77946,NH3,4,5,4
India,Maharashtra,Pimpri-Chinchwad,"Park Street Wakad, Pimpri Chinchwad - MPCB",11-07-2026 14:00,18.59051,73.77946,OZONE,17,22,20
India,Maharashtra,Pune,"Dhankawadi, Pune - IITM",11-07-2026 14:00,18.459883,73.852193,NH3,NA,NA,NA
India,Maharashtra,Pune,"Dhankawadi, Pune - IITM",11-07-2026 14:00,18.459883,73.852193,SO2,NA,NA,NA
India,Odisha,Suakati,"OMC Colony, Suakati - OSPCB",11-07-2026 14:00,21.606865,85.510538,NH3,3,3,3
India,Odisha,Suakati,"OMC Colony, Suakati - OSPCB",11-07-2026 14:00,21.606865,85.510538,SO2,7,9,8
India,Odisha,Talcher,"Talcher Coalfields,Talcher - OSPCB",11-07-2026 14:00,20.9360711,85.1707021,OZONE,21,21,21
India,Odisha,Tensa,"Barsua Iron Ore Mines, Tensa - OSPCB",11-07-2026 14:00,21.869985,85.167016,OZONE,14,14,14
India,Puducherry,Puducherry,"Jawahar Nagar, Puducherry - PPCC",11-07-2026 14:00,11.9309,79.8027,OZONE,6,56,33
India,Punjab,Amritsar,"Golden Temple, Amritsar - PPCB",11-07-2026 14:00,31.62,74.876512,PM2.5,81,93,86
India,Punjab,Amritsar,"Golden Temple, Amritsar - PPCB",11-07-2026 14:00,31.62,74.876512,NH3,6,7,7
India,Punjab,Amritsar,"Golden Temple, Amritsar - PPCB",11-07-2026 14:00,31.62,74.876512,SO2,13,15,14
India,Punjab,Amritsar,"Golden Temple, Amritsar - PPCB",11-07-2026 14:00,31.62,74.876512,CO,28,31,29
India,Odisha,Balasore,"Kalidaspur, Balasore - OSPCB",11-07-2026 14:00,21.51161,86.89088,NH3,2,5,5
India,Odisha,Balasore,"Kalidaspur, Balasore - OSPCB",11-07-2026 14:00,21.51161,86.89088,OZONE,17,91,57
India,Odisha,Barbil,"Forest Office, Barbil - OSPCB",11-07-2026 14:00,22.1166054,85.3945546,PM10,14,111,64
India,Odisha,Baripada,"Meher Colony, Baripada - OSPCB",11-07-2026 14:00,21.941841,86.728318,PM10,32,90,57
India,Odisha,Baripada,"Meher Colony, Baripada - OSPCB",11-07-2026 14:00,21.941841,86.728318,SO2,6,10,7
India,Odisha,Baripada,"Meher Colony, Baripada - OSPCB",11-07-2026 14:00,21.941841,86.728318,CO,14,22,18
India,Odisha,Bhubaneswar,"Patia, Bhubaneswar - OSPCB",11-07-2026 14:00,20.34652,85.8163,PM2.5,22,45,33
India,Punjab,Khanna,"Kalal Majra, Khanna - PPCB",11-07-2026 14:00,30.736056,76.209694,OZONE,20,40,32
India,Punjab,Ludhiana,"Punjab Agricultural University, Ludhiana - PPCB",11-07-2026 14:00,30.9028,75.8086,NO2,38,44,41
India,Punjab,Mandi Gobindgarh,"RIMT University, Mandi Gobindgarh - PPCB",11-07-2026 14:00,30.649961,76.331442,PM2.5,50,93,65
India,Punjab,Mandi Gobindgarh,"RIMT University, Mandi Gobindgarh - PPCB",11-07-2026 14:00,30.649961,76.331442,NH3,5,5,5
India,Punjab,Patiala,"Model Town, Patiala - PPCB",11-07-2026 14:00,30.349388,76.366642,SO2,11,15,13
India,Punjab,Patiala,"Model Town, Patiala - PPCB",11-07-2026 14:00,30.349388,76.366642,OZONE,16,53,28
India,Maharashtra,Sangli,"Vijay Nagar, Sangli - MPCB",11-07-2026 14:00,16.5038,74.3623,NH3,NA,NA,NA
India,Maharashtra,Solapur,"Ratandeep Housing Society, Solapur - MPCB",11-07-2026 14:00,17.65439,75.90649,NO2,7,25,17
India,Maharashtra,Solapur,"Dnyaneshwar Nagar, Solapur - MPCB",11-07-2026 14:00,17.6336264,75.9132495,PM10,35,65,49
India,Maharashtra,Solapur,"Dnyaneshwar Nagar, Solapur - MPCB",11-07-2026 14:00,17.6336264,75.9132495,NH3,7,12,9
India,Maharashtra,Solapur,"Dnyaneshwar Nagar, Solapur - MPCB",11-07-2026 14:00,17.6336264,75.9132495,CO,9,14,11
India,Maharashtra,Thane,"Kasarvadavali, Thane - MPCB",11-07-2026 14:00,19.26777,72.97182,CO,9,14,11
India,Odisha,Bhubaneswar,"Patia, Bhubaneswar - OSPCB",11-07-2026 14:00,20.34652,85.8163,OZONE,17,49,35
India,Odisha,Bileipada,"Tata Township, Bileipada - OSPCB",11-07-2026 14:00,22.06156703,85.47409613,PM10,47,125,88
India,Odisha,Bileipada,"Tata Township, Bileipada - OSPCB",11-07-2026 14:00,22.06156703,85.47409613,NH3,5,5,5
India,Odisha,Bileipada,"Tata Township, Bileipada - OSPCB",11-07-2026 14:00,22.06156703,85.47409613,CO,22,29,25
India,Maharashtra,Pune,"Mhada Colony, Pune - IITM",11-07-2026 14:00,18.57304,73.927715,PM2.5,26,61,39
India,Maharashtra,Pune,"Mhada Colony, Pune - IITM",11-07-2026 14:00,18.57304,73.927715,CO,16,31,25
India,Maharashtra,Pune,"Panchawati_Pashan, Pune - IITM",11-07-2026 14:00,18.536457,73.805454,PM10,54,76,64
India,Odisha,Rourkela,"Sector-2, Rourkela - OSPCB",11-07-2026 14:00,22.245,84.88111111,CO,14,14,14
India,Odisha,Rourkela,"Fertilizer Township, Rourkela - OSPCB",11-07-2026 14:00,22.18972222,84.86277778,PM10,56,67,61
India,Punjab,Rupnagar,"Ratanpura, Rupnagar - Ambuja Cements",11-07-2026 14:00,31.0325454,76.5623046,PM2.5,28,77,54
India,Punjab,Rupnagar,"Ratanpura, Rupnagar - Ambuja Cements",11-07-2026 14:00,31.0325454,76.5623046,PM10,21,57,40
India,Punjab,Rupnagar,"Ratanpura, Rupnagar - Ambuja Cements",11-07-2026 14:00,31.0325454,76.5623046,NH3,NA,NA,NA
India,Punjab,Rupnagar,"Ratanpura, Rupnagar - Ambuja Cements",11-07-2026 14:00,31.0325454,76.5623046,SO2,11,16,13
India,Rajasthan,Ajmer,"Civil Lines,  Ajmer - RSPCB",11-07-2026 14:00,26.470859,74.646594,NH3,6,7,6
India,Rajasthan,Ajmer,"Civil Lines,  Ajmer - RSPCB",11-07-2026 14:00,26.470859,74.646594,OZONE,23,32,27
India,Rajasthan,Alwar,"Moti Doongri, Alwar - RSPCB",11-07-2026 14:00,27.554793,76.611536,CO,29,45,35
India,Rajasthan,Banswara,"Rati Talai, Banswara - RSPCB",11-07-2026 14:00,23.55519,74.44001,NO2,16,28,21
India,Rajasthan,Baran,"Bamboliya, Baran - RSPCB",11-07-2026 14:00,25.106006,76.469948,PM2.5,25,47,32
India,Rajasthan,Baran,"Bamboliya, Baran - RSPCB",11-07-2026 14:00,25.106006,76.469948,SO2,5,14,11
India,Rajasthan,Barmer,"Railway Colony, Barmer - RSPCB",11-07-2026 14:00,25.747299,71.393989,PM10,97,476,233
India,Rajasthan,Bharatpur,"Krishna Nagar, Bharatpur - RSPCB",11-07-2026 14:00,27.215415,77.50873,PM2.5,7,40,22
India,Rajasthan,Bharatpur,"Krishna Nagar, Bharatpur - RSPCB",11-07-2026 14:00,27.215415,77.50873,NH3,NA,NA,NA
India,Rajasthan,Bharatpur,"Krishna Nagar, Bharatpur - RSPCB",11-07-2026 14:00,27.215415,77.50873,OZONE,24,57,35
India,Rajasthan,Bhilwara,"Pratap Nagar, Bhilwara - RSPCB",11-07-2026 14:00,25.339605,74.618883,PM10,76,107,94
India,Rajasthan,Bhiwadi,"Vasundhara Nagar_UIT, Bhiwadi - RSPCB",11-07-2026 14:00,28.207266,76.829265,PM10,15,138,72
India,Rajasthan,Bhiwadi,"Vasundhara Nagar_UIT, Bhiwadi - RSPCB",11-07-2026 14:00,28.207266,76.829265,NO2,6,74,17
India,Rajasthan,Bhiwadi,"Vasundhara Nagar_UIT, Bhiwadi - RSPCB",11-07-2026 14:00,28.207266,76.829265,NH3,4,19,7
India,Rajasthan,Rajsamand,"Dhoinda, Rajsamand - RSPCB",11-07-2026 14:00,25.03636,73.883502,SO2,6,8,7
India,Rajasthan,Sawai Madhopur,"Sahu Nagar, Sawai Madhopur - RSPCB",11-07-2026 14:00,26.031443,76.359327,PM2.5,30,57,40
India,Rajasthan,Sawai Madhopur,"Sahu Nagar, Sawai Madhopur - RSPCB",11-07-2026 14:00,26.031443,76.359327,PM10,81,118,105
India,Rajasthan,Sawai Madhopur,"Sahu Nagar, Sawai Madhopur - RSPCB",11-07-2026 14:00,26.031443,76.359327,SO2,1,6,4
India,Rajasthan,Sawai Madhopur,"Sahu Nagar, Sawai Madhopur - RSPCB",11-07-2026 14:00,26.031443,76.359327,CO,14,21,18
India,Rajasthan,Sawai Madhopur,"Sahu Nagar, Sawai Madhopur - RSPCB",11-07-2026 14:00,26.031443,76.359327,OZONE,33,55,43
India,Rajasthan,Sikar,"Radhakishan Pura, Sikar - RSPCB",11-07-2026 14:00,27.608912,75.153302,NH3,7,18,9
India,Rajasthan,Sirohi,"Vedhaynath Colony, Sirohi - RSPCB",11-07-2026 14:00,24.885261,72.857549,PM2.5,37,120,54
India,Rajasthan,Sirohi,"Vedhaynath Colony, Sirohi - RSPCB",11-07-2026 14:00,24.885261,72.857549,PM10,65,105,87
India,Rajasthan,Sirohi,"Vedhaynath Colony, Sirohi - RSPCB",11-07-2026 14:00,24.885261,72.857549,NO2,3,8,5
India,Rajasthan,Sirohi,"Vedhaynath Colony, Sirohi - RSPCB",11-07-2026 14:00,24.885261,72.857549,OZONE,11,16,13
India,Rajasthan,Sri Ganganagar,"Old City, Sri Ganganagar - RSPCB",11-07-2026 14:00,29.931624,73.864511,CO,16,44,27
India,Rajasthan,Tonk,"Shastri Nagar, Tonk - RSPCB",11-07-2026 14:00,26.159933,75.780517,PM10,101,143,123
India,Rajasthan,Tonk,"Shastri Nagar, Tonk - RSPCB",11-07-2026 14:00,26.159933,75.780517,NO2,1,4,2
India,Rajasthan,Tonk,"Shastri Nagar, Tonk - RSPCB",11-07-2026 14:00,26.159933,75.780517,NH3,NA,NA,NA
India,Rajasthan,Udaipur,"Ashok Nagar, Udaipur - RSPCB",11-07-2026 14:00,24.5886166,73.6321397,PM2.5,34,198,83
India,Rajasthan,Udaipur,"Ashok Nagar, Udaipur - RSPCB",11-07-2026 14:00,24.5886166,73.6321397,NO2,6,51,15
India,Rajasthan,Hanumangarh,"Housing Board, Hanumangarh - RSPCB",11-07-2026 14:00,29.61075,74.283608,CO,14,16,16
India,Rajasthan,Jaipur,"Police Commissionerate, Jaipur - RSPCB",11-07-2026 14:00,26.9164092,75.7994901,CO,40,101,62
India,Rajasthan,Jaipur,"Shastri Nagar, Jaipur - RSPCB",11-07-2026 14:00,26.9502929,75.730943,PM10,86,122,107
India,Rajasthan,Jaipur,"Shastri Nagar, Jaipur - RSPCB",11-07-2026 14:00,26.9502929,75.730943,NO2,20,50,32
India,Rajasthan,Jaipur,"Shastri Nagar, Jaipur - RSPCB",11-07-2026 14:00,26.9502929,75.730943,NH3,3,13,9
India,Rajasthan,Jaipur,"Shastri Nagar, Jaipur - RSPCB",11-07-2026 14:00,26.9502929,75.730943,SO2,13,44,28
India,Rajasthan,Jaipur,"Shastri Nagar, Jaipur - RSPCB",11-07-2026 14:00,26.9502929,75.730943,CO,42,54,48
India,Rajasthan,Jaipur,"Mansarovar Sector-12, Jaipur - RSPCB",11-07-2026 14:00,26.843698,75.766894,CO,14,19,16
India,Rajasthan,Jaisalmer,"Sadar Bazar, Jaisalmer - RSPCB",11-07-2026 14:00,26.912329,70.909168,PM2.5,55,297,162
India,Rajasthan,Jaisalmer,"Sadar Bazar, Jaisalmer - RSPCB",11-07-2026 14:00,26.912329,70.909168,PM10,209,500,394
India,Rajasthan,Jalore,"Mudtra Sili, Jalore - RSPCB",11-07-2026 14:00,25.344694,72.626208,PM2.5,15,55,29
India,Rajasthan,Jalore,"Mudtra Sili, Jalore - RSPCB",11-07-2026 14:00,25.344694,72.626208,NO2,3,16,7
India,Rajasthan,Jhalawar,"Rajlaxmi Nagar, Jhalawar - RSPCB",11-07-2026 14:00,24.588397,76.172782,PM10,49,85,67
India,Rajasthan,Jhalawar,"Rajlaxmi Nagar, Jhalawar - RSPCB",11-07-2026 14:00,24.588397,76.172782,NH3,4,7,5
India,Rajasthan,Khairthal,"New Anaj Mandi, Khairthal - RSPCB",11-07-2026 14:00,27.8015617,76.6365217,PM2.5,58,236,110
India,Rajasthan,Khairthal,"New Anaj Mandi, Khairthal - RSPCB",11-07-2026 14:00,27.8015617,76.6365217,PM10,44,211,112
India,Rajasthan,Khairthal,"New Anaj Mandi, Khairthal - RSPCB",11-07-2026 14:00,27.8015617,76.6365217,NO2,2,14,6
India,Rajasthan,Khairthal,"New Anaj Mandi, Khairthal - RSPCB",11-07-2026 14:00,27.8015617,76.6365217,NH3,3,6,4
India,Rajasthan,Kota,"Shrinath Puram, Kota - RSPCB",11-07-2026 14:00,25.14389,75.821256,PM10,NA,NA,NA
India,Rajasthan,Kota,"Shrinath Puram, Kota - RSPCB",11-07-2026 14:00,25.14389,75.821256,SO2,NA,NA,NA
India,Rajasthan,Kota,"Shrinath Puram, Kota - RSPCB",11-07-2026 14:00,25.14389,75.821256,CO,23,38,29
India,Rajasthan,Kota,"Nayapura, Kota - RSPCB",11-07-2026 14:00,25.196024,75.855668,OZONE,17,51,32
India,Rajasthan,Kota,"Dhanmandi, Kota - RSPCB",11-07-2026 14:00,25.16409,75.858137,PM10,58,105,80
India,Rajasthan,Kota,"Dhanmandi, Kota - RSPCB",11-07-2026 14:00,25.16409,75.858137,CO,17,24,20
India,Rajasthan,Pali,"Indira Colony Vistar, Pali - RSPCB",11-07-2026 14:00,25.771061,73.340227,OZONE,12,62,33
India,Rajasthan,Pratapgarh,"Pragati Nagar, Pratapgarh - RSPCB",11-07-2026 14:00,24.041198,74.780702,PM10,45,109,78
India,Rajasthan,Pratapgarh,"Pragati Nagar, Pratapgarh - RSPCB",11-07-2026 14:00,24.041198,74.780702,SO2,1,4,1
India,Rajasthan,Rajsamand,"Dhoinda, Rajsamand - RSPCB",11-07-2026 14:00,25.03636,73.883502,PM2.5,30,67,51
India,Rajasthan,Jhalawar,"Rajlaxmi Nagar, Jhalawar - RSPCB",11-07-2026 14:00,24.588397,76.172782,CO,20,30,27
India,Rajasthan,Jhalawar,"Rajlaxmi Nagar, Jhalawar - RSPCB",11-07-2026 14:00,24.588397,76.172782,OZONE,11,28,18
India,Rajasthan,Jhunjhunu,"Indra Nagar, Jhunjhunu - RSPCB",11-07-2026 14:00,28.108988,75.386577,PM2.5,11,66,42
India,Rajasthan,Jhunjhunu,"Indra Nagar, Jhunjhunu - RSPCB",11-07-2026 14:00,28.108988,75.386577,NH3,5,12,7
India,Rajasthan,Jhunjhunu,"Indra Nagar, Jhunjhunu - RSPCB",11-07-2026 14:00,28.108988,75.386577,OZONE,16,42,28
India,Rajasthan,Jodhpur,"Mandor, Jodhpur - RSPCB",11-07-2026 14:00,26.358805,73.047444,PM2.5,20,67,41
India,Rajasthan,Jodhpur,"Mandor, Jodhpur - RSPCB",11-07-2026 14:00,26.358805,73.047444,PM10,69,189,123
India,Rajasthan,Jodhpur,"Mandor, Jodhpur - RSPCB",11-07-2026 14:00,26.358805,73.047444,SO2,3,6,4
India,Rajasthan,Jodhpur,"Collectorate, Jodhpur - RSPCB",11-07-2026 14:00,26.268249,73.0193853,PM2.5,32,86,52
India,Rajasthan,Chittorgarh,"Shastri Nagar, Chittorgarh - RSPCB",11-07-2026 14:00,24.892047,74.623527,OZONE,18,34,25
India,Rajasthan,Churu,"Subash Chowk, Churu - RSPCB",11-07-2026 14:00,28.296139,74.961696,CO,20,24,21
India,Rajasthan,Dausa,"Khatikan Mohalla, Dausa - RSPCB",11-07-2026 14:00,26.895552,76.334753,SO2,1,5,2
India,Rajasthan,Dholpur,"Raja Ganj, Dholpur - RSPCB",11-07-2026 14:00,26.699557,77.898881,CO,19,26,22
India,Rajasthan,Dholpur,"Raja Ganj, Dholpur - RSPCB",11-07-2026 14:00,26.699557,77.898881,OZONE,13,24,19
India,Rajasthan,Bhiwadi,"RIICO Ind. Area III, Bhiwadi - RSPCB",11-07-2026 14:00,28.194909,76.862296,NH3,4,11,6
India,Rajasthan,Bhiwadi,"RIICO Ind. Area III, Bhiwadi - RSPCB",11-07-2026 14:00,28.194909,76.862296,SO2,8,18,11
India,Rajasthan,Bikaner,"MM Ground, Bikaner - RSPCB",11-07-2026 14:00,28.018792,73.292658,OZONE,27,43,37
India,Rajasthan,Bundi,"New Colony, Bundi - RSPCB",11-07-2026 14:00,25.435774,75.644272,PM2.5,17,63,37
India,Rajasthan,Bundi,"New Colony, Bundi - RSPCB",11-07-2026 14:00,25.435774,75.644272,PM10,53,93,76
India,Rajasthan,Jodhpur,"Samrat Ashok Udhyan, Jodhpur - RSPCB",11-07-2026 14:00,26.253384,72.976571,PM2.5,27,62,45
India,Rajasthan,Karauli,"Satyawati Vihar, Karauli - RSPCB",11-07-2026 14:00,26.506177,77.025989,NH3,4,12,6
India,Rajasthan,Karauli,"Satyawati Vihar, Karauli - RSPCB",11-07-2026 14:00,26.506177,77.025989,CO,17,20,19
India,Rajasthan,Jodhpur,"Collectorate, Jodhpur - RSPCB",11-07-2026 14:00,26.268249,73.0193853,NO2,13,19,16
India,Rajasthan,Jodhpur,"Collectorate, Jodhpur - RSPCB",11-07-2026 14:00,26.268249,73.0193853,SO2,0,14,6
India,Rajasthan,Jodhpur,"Digari Kalan, Jodhpur - RSPCB",11-07-2026 14:00,26.29581,73.082283,PM2.5,17,62,32
India,Uttar Pradesh,Jhansi,"Shivaji Nagar, Jhansi - UPPCB",11-07-2026 14:00,25.4547,78.6039,PM10,44,72,56
India,Uttar Pradesh,Jhansi,"Shivaji Nagar, Jhansi - UPPCB",11-07-2026 14:00,25.4547,78.6039,NH3,4,4,4
India,Uttar Pradesh,Kanpur,"Nehru Nagar, Kanpur - UPPCB",11-07-2026 14:00,26.4703136,80.3229863,NH3,NA,NA,NA
India,Uttar Pradesh,Kanpur,"Nehru Nagar, Kanpur - UPPCB",11-07-2026 14:00,26.4703136,80.3229863,CO,46,51,49
India,Uttar Pradesh,Kanpur,"Nehru Nagar, Kanpur - UPPCB",11-07-2026 14:00,26.4703136,80.3229863,OZONE,2,39,19
India,Uttar Pradesh,Kanpur,"NSI Kalyanpur, Kanpur - UPPCB",11-07-2026 14:00,26.509954,80.249612,PM2.5,15,50,31
India,Uttar Pradesh,Kanpur,"NSI Kalyanpur, Kanpur - UPPCB",11-07-2026 14:00,26.509954,80.249612,NO2,31,31,31
India,Uttar Pradesh,Kanpur,"NSI Kalyanpur, Kanpur - UPPCB",11-07-2026 14:00,26.509954,80.249612,NH3,2,2,2
India,Uttar Pradesh,Kanpur,"NSI Kalyanpur, Kanpur - UPPCB",11-07-2026 14:00,26.509954,80.249612,SO2,22,24,23
India,Uttar Pradesh,Kanpur,"FTI Kidwai Nagar, Kanpur - UPPCB",11-07-2026 14:00,26.428282,80.327067,PM10,10,175,52
India,Uttar Pradesh,Khora,"Prashant Garden, Khora - UPPCB",11-07-2026 14:00,28.61119,77.34206,PM10,31,326,95
India,Uttar Pradesh,Khora,"Prashant Garden, Khora - UPPCB",11-07-2026 14:00,28.61119,77.34206,CO,80,94,87
India,Uttar Pradesh,Khurja,"Kalindi Kunj, Khurja - UPPCB",11-07-2026 14:00,28.2348927,77.8683002,OZONE,23,24,24
India,Uttar Pradesh,Lucknow,"Kendriya Vidyalaya, Lucknow - CPCB",11-07-2026 14:00,26.906111,80.948222,NO2,18,29,23
India,Uttar Pradesh,Lucknow,"Kukrail Picnic Spot-1, Lucknow - UPPCB",11-07-2026 14:00,26.90723,80.98579,PM2.5,21,59,39
India,Uttar Pradesh,Lucknow,"Kukrail Picnic Spot-1, Lucknow - UPPCB",11-07-2026 14:00,26.90723,80.98579,NH3,6,6,6
India,Uttar Pradesh,Lucknow,"Kukrail Picnic Spot-1, Lucknow - UPPCB",11-07-2026 14:00,26.90723,80.98579,CO,15,22,18
India,Uttar Pradesh,Lucknow,"B R Ambedkar University, Lucknow - UPPCB",11-07-2026 14:00,26.766433,80.927299,OZONE,25,46,32
India,Uttar Pradesh,Lucknow,"Gomti Nagar, Lucknow - UPPCB",11-07-2026 14:00,26.86812,81.005119,PM2.5,8,111,38
India,Uttar Pradesh,Lucknow,"Gomti Nagar, Lucknow - UPPCB",11-07-2026 14:00,26.86812,81.005119,NO2,9,10,9
India,Uttar Pradesh,Lucknow,"Gomti Nagar, Lucknow - UPPCB",11-07-2026 14:00,26.86812,81.005119,CO,37,42,40
India,Uttar Pradesh,Lucknow,"Talkatora District Industries Center, Lucknow - CPCB",11-07-2026 14:00,26.83399722,80.8917361,PM2.5,19,68,40
India,Tamil Nadu,Chennai,"Arumbakkam, Chennai - TNPCB",11-07-2026 14:00,13.0664,80.2112,NH3,3,5,4
India,Tamil Nadu,Chennai,"Perungudi, Chennai - TNPCB",11-07-2026 14:00,12.9533,80.2357,CO,30,52,42
India,Tamil Nadu,Chennai,"Perungudi, Chennai - TNPCB",11-07-2026 14:00,12.9533,80.2357,OZONE,0,2,1
India,Tamil Nadu,Chennai,"Velachery Res. Area, Chennai - CPCB",11-07-2026 14:00,13.0052189,80.2398125,PM10,76,108,93
India,Tamil Nadu,Chennai,"Velachery Res. Area, Chennai - CPCB",11-07-2026 14:00,13.0052189,80.2398125,NH3,2,3,3
India,Tamil Nadu,Coimbatore,"SIDCO Kurichi, Coimbatore - TNPCB",11-07-2026 14:00,10.942451,76.978996,PM10,16,41,28
India,Tamil Nadu,Coimbatore,"SIDCO Kurichi, Coimbatore - TNPCB",11-07-2026 14:00,10.942451,76.978996,SO2,25,26,26
India,Tamil Nadu,Dindigul,"Mendonsa Colony, Dindigul - TNPCB",11-07-2026 14:00,10.358535,77.984321,NO2,10,24,21
India,Tamil Nadu,Dindigul,"Mendonsa Colony, Dindigul - TNPCB",11-07-2026 14:00,10.358535,77.984321,CO,34,34,34
India,Tamil Nadu,Gummidipoondi,"Anthoni Pillai Nagar, Gummidipoondi - TNPCB",11-07-2026 14:00,13.4127,80.1081,PM10,54,181,99
India,Tamil Nadu,Gummidipoondi,"Anthoni Pillai Nagar, Gummidipoondi - TNPCB",11-07-2026 14:00,13.4127,80.1081,SO2,1,54,25
India,Tamil Nadu,Gummidipoondi,"Anthoni Pillai Nagar, Gummidipoondi - TNPCB",11-07-2026 14:00,13.4127,80.1081,OZONE,NA,NA,NA
India,Uttar Pradesh,Agra,"Rohta, Agra - UPPCB",11-07-2026 14:00,27.106972,78.000111,OZONE,13,14,13
India,Uttar Pradesh,Agra,"Sanjay Palace, Agra - UPPCB",11-07-2026 14:00,27.19865833,78.00598056,NH3,NA,NA,NA
India,Uttar Pradesh,Agra,"Shastripuram, Agra - UPPCB",11-07-2026 14:00,27.19862,77.92066,NH3,3,3,3
India,Uttar Pradesh,Agra,"Sector-3B Avas Vikas Colony, Agra - UPPCB",11-07-2026 14:00,27.19412,77.96237,PM10,43,136,85
India,Uttar Pradesh,Agra,"Sector-3B Avas Vikas Colony, Agra - UPPCB",11-07-2026 14:00,27.19412,77.96237,NO2,28,29,28
India,Uttar Pradesh,Baghpat,"Sardar Patel Inter College, Baghpat - UPPCB",11-07-2026 14:00,28.964949,77.278761,OZONE,8,38,25
India,Uttar Pradesh,Bareilly,"Civil Lines, Bareilly - UPPCB",11-07-2026 14:00,28.359581,79.414455,PM10,22,42,30
India,Uttar Pradesh,Bareilly,"Civil Lines, Bareilly - UPPCB",11-07-2026 14:00,28.359581,79.414455,NO2,8,9,8
India,Uttar Pradesh,Bulandshahr,"Yamunapuram, Bulandshahr - UPPCB",11-07-2026 14:00,28.406963,77.849831,CO,14,49,29
India,Uttar Pradesh,Firozabad,"Vibhab Nagar, Firozabad - UPPCB",11-07-2026 14:00,27.1594,78.3953,NH3,6,7,7
India,Tamil Nadu,Madurai,"Uchapatti, Madurai - TNPCB",11-07-2026 14:00,9.865935,78.022669,OZONE,0,1,1
India,Tamil Nadu,Thoothukudi,"Meelavittan, Thoothukudi - TNPCB",11-07-2026 14:00,8.816428,78.099039,SO2,9,19,13
India,Tamil Nadu,Thoothukudi,"Meelavittan, Thoothukudi - TNPCB",11-07-2026 14:00,8.816428,78.099039,OZONE,27,32,30
India,Telangana,Hyderabad,"Ramachandrapuram, Hyderabad - TSPCB",11-07-2026 14:00,17.528544,78.286195,CO,11,28,16
India,Telangana,Hyderabad,"IDA Pashamylaram, Hyderabad - TSPCB",11-07-2026 14:00,17.5316895,78.218939,PM2.5,16,48,30
India,Telangana,Hyderabad,"IDA Pashamylaram, Hyderabad - TSPCB",11-07-2026 14:00,17.5316895,78.218939,PM10,34,72,51
India,Telangana,Hyderabad,"ICRISAT Patancheru, Hyderabad - TSPCB",11-07-2026 14:00,17.5184,78.278777,PM10,51,153,75
India,Telangana,Hyderabad,"ICRISAT Patancheru, Hyderabad - TSPCB",11-07-2026 14:00,17.5184,78.278777,NO2,5,31,12
India,Telangana,Hyderabad,"Somajiguda, Hyderabad - TSPCB",11-07-2026 14:00,17.417094,78.457437,PM2.5,35,82,46
India,Telangana,Hyderabad,"Central University, Hyderabad - TSPCB",11-07-2026 14:00,17.460103,78.334361,NO2,1,27,15
India,Telangana,Hyderabad,"ECIL Kapra, Hyderabad - TSPCB",11-07-2026 14:00,17.470431,78.566959,CO,7,14,11
India,Telangana,Hyderabad,"Kompally Municipal Office, Hyderabad - TSPCB",11-07-2026 14:00,17.544899,78.486949,PM2.5,30,49,38
India,Telangana,Hyderabad,"Kokapet, Hyderabad - TSPCB",11-07-2026 14:00,17.393559,78.339194,CO,18,32,24
India,Telangana,Hyderabad,"Kokapet, Hyderabad - TSPCB",11-07-2026 14:00,17.393559,78.339194,OZONE,14,31,21
India,Tripura,Agartala,"Bardowali, Agartala - Tripura SPCB",11-07-2026 14:00,23.8175497,91.2726974,SO2,8,8,8
India,Uttar Pradesh,Agra,"Manoharpur, Agra - UPPCB",11-07-2026 14:00,27.23711,78.01936,PM10,60,93,76
India,Uttar Pradesh,Agra,"Manoharpur, Agra - UPPCB",11-07-2026 14:00,27.23711,78.01936,CO,21,22,21
India,Uttar Pradesh,Agra,"Manoharpur, Agra - UPPCB",11-07-2026 14:00,27.23711,78.01936,OZONE,5,5,5
India,Uttar Pradesh,Agra,"Shahjahan Garden, Agra - UPPCB",11-07-2026 14:00,27.169338,78.03582,NH3,1,1,1
India,Uttar Pradesh,Ghaziabad,"Indirapuram, Ghaziabad - UPPCB",11-07-2026 14:00,28.646233,77.358075,NH3,8,10,9
India,Uttar Pradesh,Ghaziabad,"Indirapuram, Ghaziabad - UPPCB",11-07-2026 14:00,28.646233,77.358075,SO2,16,19,17
India,Uttar Pradesh,Ghaziabad,"Indirapuram, Ghaziabad - UPPCB",11-07-2026 14:00,28.646233,77.358075,OZONE,18,29,23
India,Uttar Pradesh,Ghaziabad,"Govindpuram, Ghaziabad - UPPCB",11-07-2026 14:00,28.694528,77.494705,PM10,11,86,27
India,Uttar Pradesh,Ghaziabad,"Sanjay Nagar, Ghaziabad - UPPCB",11-07-2026 14:00,28.685382,77.453839,SO2,4,7,5
India,Uttar Pradesh,Ghaziabad,"Vasundhara, Ghaziabad - UPPCB",11-07-2026 14:00,28.6603346,77.3572563,CO,28,70,40
India,Uttar Pradesh,Gorakhpur,"Madan Mohan Malaviya University of Technology, Gorakhpur - UPPCB",11-07-2026 14:00,26.730136,83.433859,CO,5,6,6
India,Sikkim,Gangtok,"Zero Point GICI, Gangtok - SSPCB",11-07-2026 14:00,27.33853,88.614099,NO2,7,8,8
India,Tamil Nadu,Chennai,"Kodungaiyur, Chennai - TNPCB",11-07-2026 14:00,13.1278,80.2642,NH3,3,5,4
India,Tamil Nadu,Chennai,"Kodungaiyur, Chennai - TNPCB",11-07-2026 14:00,13.1278,80.2642,CO,27,34,31
India,Tamil Nadu,Chennai,"Manali Village, Chennai - TNPCB",11-07-2026 14:00,13.1662,80.2584,OZONE,66,323,219
India,Tamil Nadu,Chennai,"Manali, Chennai - CPCB",11-07-2026 14:00,13.164544,80.26285,PM2.5,9,47,29
India,Tamil Nadu,Chennai,"Manali, Chennai - CPCB",11-07-2026 14:00,13.164544,80.26285,NH3,6,6,6
India,Tamil Nadu,Chennai,"Manali, Chennai - CPCB",11-07-2026 14:00,13.164544,80.26285,SO2,4,10,6
India,Telangana,Hyderabad,"New Malakpet, Hyderabad - TSPCB",11-07-2026 14:00,17.37206,78.50864,NO2,11,18,13
India,Telangana,Hyderabad,"Zoo Park, Hyderabad - TSPCB",11-07-2026 14:00,17.349694,78.451437,NH3,2,2,2
India,Telangana,Hyderabad,"Zoo Park, Hyderabad - TSPCB",11-07-2026 14:00,17.349694,78.451437,CO,26,44,35
India,Uttar Pradesh,Greater Noida,"Knowledge Park - III, Greater Noida - UPPCB",11-07-2026 14:00,28.47272,77.482,PM2.5,16,91,45
India,Uttar Pradesh,Greater Noida,"Knowledge Park - III, Greater Noida - UPPCB",11-07-2026 14:00,28.47272,77.482,NH3,7,10,8
India,Uttar Pradesh,Greater Noida,"Knowledge Park - III, Greater Noida - UPPCB",11-07-2026 14:00,28.47272,77.482,CO,23,111,39
India,West Bengal,Asansol,"Asansol Court Area, Asansol - WBPCB",11-07-2026 14:00,23.685297,86.945968,NO2,27,76,37
India,West Bengal,Barrackpore,"SVSPA Campus, Barrackpore - WBPCB",11-07-2026 14:00,22.7605581,88.3617589,NH3,5,8,7
India,West Bengal,Durgapur,"PCBL Residential Complex, Durgapur - WBPCB",11-07-2026 14:00,23.508764,87.35444,PM10,24,42,34
India,West Bengal,Durgapur,"PCBL Residential Complex, Durgapur - WBPCB",11-07-2026 14:00,23.508764,87.35444,OZONE,2,2,2
India,West Bengal,Durgapur,"Mahishkapur Road_B-Zone, Durgapur - WBPCB",11-07-2026 14:00,23.567923,87.306843,NO2,5,29,15
India,West Bengal,Durgapur,"Mahishkapur Road_B-Zone, Durgapur - WBPCB",11-07-2026 14:00,23.567923,87.306843,SO2,11,12,12
India,West Bengal,Durgapur,"Mahishkapur Road_B-Zone, Durgapur - WBPCB",11-07-2026 14:00,23.567923,87.306843,CO,NA,NA,NA
India,West Bengal,Durgapur,"Mahishkapur Road_B-Zone, Durgapur - WBPCB",11-07-2026 14:00,23.567923,87.306843,OZONE,18,25,22
India,West Bengal,Durgapur,"Womens College_City Center, Durgapur - WBPCB",11-07-2026 14:00,23.549395,87.300496,CO,26,42,34
India,West Bengal,Haldia,"Priyambada Housing Estate, Haldia - WBPCB",11-07-2026 14:00,22.06047,88.109737,PM2.5,23,65,41
India,West Bengal,Haldia,"Priyambada Housing Estate, Haldia - WBPCB",11-07-2026 14:00,22.06047,88.109737,NH3,4,7,5
India,West Bengal,Howrah,"Ghusuri, Howrah - WBPCB",11-07-2026 14:00,22.611968,88.347422,PM10,41,103,77
India,West Bengal,Howrah,"Padmapukur, Howrah - WBPCB",11-07-2026 14:00,22.5687319,88.2797276,SO2,6,26,10
India,Uttar Pradesh,Lucknow,"Talkatora District Industries Center, Lucknow - CPCB",11-07-2026 14:00,26.83399722,80.8917361,OZONE,13,47,28
India,Uttar Pradesh,Lucknow,"Lalbagh, Lucknow - CPCB",11-07-2026 14:00,26.8458805,80.9365541,OZONE,28,52,42
India,Uttar Pradesh,Mathura,"Pali Dungra, Mathura - UPPCB",11-07-2026 14:00,27.410954,77.550619,PM10,NA,NA,NA
India,Uttar Pradesh,Meerut,"Pallavpuram Phase 2, Meerut - UPPCB",11-07-2026 14:00,29.06351,77.709723,SO2,NA,NA,NA
India,Uttar Pradesh,Meerut,"Ganga Nagar, Meerut - UPPCB",11-07-2026 14:00,28.999264,77.7590354,PM10,30,166,63
India,Uttar Pradesh,Meerut,"Ganga Nagar, Meerut - UPPCB",11-07-2026 14:00,28.999264,77.7590354,NO2,25,39,31
India,Uttar Pradesh,Meerut,"Ganga Nagar, Meerut - UPPCB",11-07-2026 14:00,28.999264,77.7590354,SO2,18,24,20
India,Uttar Pradesh,Modinagar,"SRM University, Modinagar - UPPCB",11-07-2026 14:00,28.798171,77.540243,PM2.5,9,90,31
India,Uttar Pradesh,Modinagar,"SRM University, Modinagar - UPPCB",11-07-2026 14:00,28.798171,77.540243,PM10,8,75,26
India,Uttar Pradesh,Modinagar,"SRM University, Modinagar - UPPCB",11-07-2026 14:00,28.798171,77.540243,CO,12,25,18
India,Uttar Pradesh,Modinagar,"SRM University, Modinagar - UPPCB",11-07-2026 14:00,28.798171,77.540243,OZONE,12,74,48
India,Uttar Pradesh,Moradabad,"Transport Nagar, Moradabad - UPPCB",11-07-2026 14:00,28.802625,78.753728,NO2,18,24,24
India,Uttar Pradesh,Moradabad,"Eco Herbal Park, Moradabad - UPPCB",11-07-2026 14:00,28.840739,78.697531,PM2.5,2,40,21
India,Uttar Pradesh,Prayagraj,"Nagar Nigam, Prayagraj - UPPCB",11-07-2026 14:00,25.44919916,81.82735986,PM2.5,11,34,20
India,Uttar Pradesh,Prayagraj,"Nagar Nigam, Prayagraj - UPPCB",11-07-2026 14:00,25.44919916,81.82735986,NO2,5,6,5
India,Uttar Pradesh,Prayagraj,"Nagar Nigam, Prayagraj - UPPCB",11-07-2026 14:00,25.44919916,81.82735986,SO2,4,15,7
India,Uttar Pradesh,Prayagraj,"Jhunsi, Prayagraj - UPPCB",11-07-2026 14:00,25.425602,81.917152,PM10,NA,NA,NA
India,Uttar Pradesh,Prayagraj,"Motilal Nehru NIT, Prayagraj - UPPCB",11-07-2026 14:00,25.494,81.863,PM10,14,167,42
India,Uttar Pradesh,Prayagraj,"Motilal Nehru NIT, Prayagraj - UPPCB",11-07-2026 14:00,25.494,81.863,CO,1,3,3
India,Uttar Pradesh,Raebareli,"Anand Nagar, Raebareli - UPPCB",11-07-2026 14:00,26.219512,81.237648,NH3,11,12,11
India,Uttar Pradesh,Raebareli," Indira Nagar, Raebareli - NTPC Unchahar",11-07-2026 14:00,26.207781,81.245571,OZONE,8,8,8
India,Uttar Pradesh,Varanasi,"Bhelupur, Varanasi - UPPCB",11-07-2026 14:00,25.301778,82.996789,NH3,1,1,1
India,Uttar Pradesh,Varanasi,"Bhelupur, Varanasi - UPPCB",11-07-2026 14:00,25.301778,82.996789,SO2,22,28,24
India,Uttar Pradesh,Varanasi,"IESD Banaras Hindu University, Varanasi - UPPCB",11-07-2026 14:00,25.262326,82.995408,PM2.5,8,27,18
India,Uttar Pradesh,Varanasi,"Ardhali Bazar, Varanasi - UPPCB",11-07-2026 14:00,25.3505986,82.9083074,NH3,NA,NA,NA
India,Uttar Pradesh,Varanasi,"Ardhali Bazar, Varanasi - UPPCB",11-07-2026 14:00,25.3505986,82.9083074,CO,17,17,17
India,Uttar Pradesh,Moradabad,"Eco Herbal Park, Moradabad - UPPCB",11-07-2026 14:00,28.840739,78.697531,CO,9,11,10
India,Uttar Pradesh,Moradabad,"Employment Office, Moradabad - UPPCB",11-07-2026 14:00,28.88528,78.7388,PM10,18,47,33
India,Uttar Pradesh,Moradabad,"Employment Office, Moradabad - UPPCB",11-07-2026 14:00,28.88528,78.7388,NO2,23,24,23
India,Uttar Pradesh,Moradabad,"Employment Office, Moradabad - UPPCB",11-07-2026 14:00,28.88528,78.7388,NH3,3,3,3
India,Uttar Pradesh,Moradabad,"Buddhi Vihar, Moradabad - UPPCB",11-07-2026 14:00,28.83526,78.7446,PM10,7,52,26
India,Uttar Pradesh,Moradabad,"Kashiram Nagar, Moradabad - UPPCB",11-07-2026 14:00,28.849399,78.742362,CO,31,35,34
India,Uttar Pradesh,Varanasi,"Ardhali Bazar, Varanasi - UPPCB",11-07-2026 14:00,25.3505986,82.9083074,OZONE,15,29,25
India,Uttarakhand,Dehradun,"Doon University, Dehradun - UKPCB",11-07-2026 14:00,30.269444,78.044167,PM10,8,38,19
India,Uttarakhand,Dehradun,"Doon University, Dehradun - UKPCB",11-07-2026 14:00,30.269444,78.044167,NH3,NA,NA,NA
India,West Bengal,Asansol,"Mahabir Colliery, Asansol - WBPCB",11-07-2026 14:00,23.618183,87.105718,NH3,0,0,0
India,Uttar Pradesh,Moradabad,"Jigar Colony, Moradabad - UPPCB",11-07-2026 14:00,28.856664,78.772638,NH3,6,6,6
India,Uttar Pradesh,Muzaffarnagar,"New Mandi, Muzaffarnagar - UPPCB",11-07-2026 14:00,29.4723508,77.7194031,NO2,19,46,29
India,Uttar Pradesh,Muzaffarnagar,"New Mandi, Muzaffarnagar - UPPCB",11-07-2026 14:00,29.4723508,77.7194031,OZONE,18,61,39
India,Uttar Pradesh,Noida,"Sector - 125, Noida - UPPCB",11-07-2026 14:00,28.5447608,77.3231257,OZONE,8,27,16
India,West Bengal,Howrah,"Dasnagar, Howrah - WBPCB",11-07-2026 14:00,22.6025571,88.3105664,SO2,11,12,12
India,West Bengal,Howrah,"Belur Math, Howrah - WBPCB",11-07-2026 14:00,22.629801,88.352017,NH3,4,5,4
India,West Bengal,Howrah,"Belur Math, Howrah - WBPCB",11-07-2026 14:00,22.629801,88.352017,SO2,6,8,7
India,West Bengal,Howrah,"Belur Math, Howrah - WBPCB",11-07-2026 14:00,22.629801,88.352017,CO,22,31,27
India,Uttar Pradesh,Noida,"Sector-116, Noida - UPPCB",11-07-2026 14:00,28.56923,77.393848,CO,35,44,41
India,Uttar Pradesh,Noida,"Sector - 62, Noida - IITM",11-07-2026 14:00,28.6245479,77.3577104,PM10,24,167,98
India,Uttar Pradesh,Noida,"Sector-1, Noida - UPPCB",11-07-2026 14:00,28.5898,77.3101,SO2,7,12,9
India,West Bengal,Kolkata,"Victoria, Kolkata - WBPCB",11-07-2026 14:00,22.5448082,88.3403691,OZONE,49,61,56
India,West Bengal,Kolkata,"Fort William, Kolkata - WBPCB",11-07-2026 14:00,22.55664,88.342674,NO2,17,29,23
India,West Bengal,Kolkata,"Fort William, Kolkata - WBPCB",11-07-2026 14:00,22.55664,88.342674,CO,15,26,21
India,West Bengal,Kolkata,"Rabindra Sarobar, Kolkata - WBPCB",11-07-2026 14:00,22.51106,88.35142,PM2.5,18,43,27
India,West Bengal,Kolkata,"Rabindra Sarobar, Kolkata - WBPCB",11-07-2026 14:00,22.51106,88.35142,NH3,6,8,7
India,West Bengal,Kolkata,"Jadavpur, Kolkata - WBPCB",11-07-2026 14:00,22.49929,88.36917,NH3,14,19,16
India,West Bengal,Kolkata,"Rabindra Bharati University, Kolkata - WBPCB",11-07-2026 14:00,22.627847,88.380669,PM10,28,65,50
India,West Bengal,Kolkata,"Bidhannagar, Kolkata - WBPCB",11-07-2026 14:00,22.58157048,88.41002457,CO,16,23,19
India,West Bengal,Kolkata,"Bidhannagar, Kolkata - WBPCB",11-07-2026 14:00,22.58157048,88.41002457,OZONE,18,56,36
India,West Bengal,Siliguri,"Ward-32 Bapupara, Siliguri - WBPCB",11-07-2026 14:00,26.6879226,88.4152495,NH3,14,17,15
India,Assam,Guwahati,"IITG, Guwahati - PCBA",11-07-2026 14:00,26.2028636,91.70046436,NO2,1,3,2
India,Assam,Guwahati,"IITG, Guwahati - PCBA",11-07-2026 14:00,26.2028636,91.70046436,SO2,39,41,40
India,Assam,Guwahati,"Railway Colony, Guwahati - PCBA",11-07-2026 14:00,26.181742,91.78063,SO2,36,45,41
India,Assam,Guwahati,"LGBI Airport, Guwahati - PCBA",11-07-2026 14:00,26.10887,91.589544,SO2,10,20,13
India,Assam,Guwahati,"LGBI Airport, Guwahati - PCBA",11-07-2026 14:00,26.10887,91.589544,OZONE,38,58,42
India,Assam,Guwahati,"Pan Bazaar, Guwahati - PCBA",11-07-2026 14:00,26.1875,91.744194,NO2,0,1,0
India,Assam,Guwahati,"Pan Bazaar, Guwahati - PCBA",11-07-2026 14:00,26.1875,91.744194,NH3,1,1,1
India,Assam,Nagaon,"Christianpatty, Nagaon - PCBA",11-07-2026 14:00,26.349082,92.68449,PM2.5,43,86,62
India,Assam,Nagaon,"Christianpatty, Nagaon - PCBA",11-07-2026 14:00,26.349082,92.68449,PM10,37,80,55
India,Assam,Nagaon,"Christianpatty, Nagaon - PCBA",11-07-2026 14:00,26.349082,92.68449,NH3,4,4,4
India,Assam,Silchar,"Tarapur, Silchar - PCBA",11-07-2026 14:00,24.82827,92.79525,PM2.5,34,65,43
India,Assam,Silchar,"Tarapur, Silchar - PCBA",11-07-2026 14:00,24.82827,92.79525,CO,20,25,23
India,Bihar,Bhagalpur,"DM Office_Kachari Chowk, Bhagalpur - BSPCB",11-07-2026 14:00,25.251013,86.989001,PM10,22,199,56
India,Bihar,Bhagalpur,"DM Office_Kachari Chowk, Bhagalpur - BSPCB",11-07-2026 14:00,25.251013,86.989001,NO2,10,14,12
India,Bihar,Bhagalpur,"DM Office_Kachari Chowk, Bhagalpur - BSPCB",11-07-2026 14:00,25.251013,86.989001,NH3,4,4,4
India,Bihar,Bhagalpur,"DM Office_Kachari Chowk, Bhagalpur - BSPCB",11-07-2026 14:00,25.251013,86.989001,CO,10,43,28
India,Bihar,Bhagalpur,"Mayaganj, Bhagalpur - BSPCB",11-07-2026 14:00,25.265194,87.012947,PM2.5,NA,NA,NA
India,Bihar,Bihar Sharif,"D M Colony, Bihar Sharif - BSPCB",11-07-2026 14:00,25.204762,85.51496,OZONE,2,2,2
India,Bihar,Buxar,"Charitra Van, Buxar - BSPCB",11-07-2026 14:00,25.56752,83.966379,PM2.5,17,85,38
India,Bihar,Chhapra,"Darshan Nagar, Chhapra - BSPCB",11-07-2026 14:00,25.7808257,84.7446768,NO2,2,2,2
India,Bihar,Chhapra,"Darshan Nagar, Chhapra - BSPCB",11-07-2026 14:00,25.7808257,84.7446768,CO,65,78,72
India,Bihar,Gaya,"Collectorate, Gaya - BSPCB",11-07-2026 14:00,24.7955,84.9994,PM10,NA,NA,NA
India,Andhra Pradesh,Amaravati,"Secretariat, Amaravati - APPCB",11-07-2026 14:00,16.5150833,80.5181667,NO2,13,58,24
India,Andhra Pradesh,Anantapur,"Gulzarpet, Anantapur - APPCB",11-07-2026 14:00,14.675886,77.593027,NO2,13,30,15
India,Andhra Pradesh,Anantapur,"Gulzarpet, Anantapur - APPCB",11-07-2026 14:00,14.675886,77.593027,NH3,1,4,1
India,Andhra Pradesh,Chittoor,"Gangineni Cheruvu, Chittoor - APPCB",11-07-2026 14:00,13.20488,79.097889,NO2,24,32,30
India,Andhra Pradesh,Eluru,"District Court, Eluru - APPCB",11-07-2026 14:00,16.711754,81.092095,PM2.5,41,63,51
India,Andhra Pradesh,Eluru,"District Court, Eluru - APPCB",11-07-2026 14:00,16.711754,81.092095,SO2,8,14,9
India,Andhra Pradesh,Kadapa,"Yerramukkapalli, Kadapa - APPCB",11-07-2026 14:00,14.465052,78.824187,PM2.5,56,81,75
India,Andhra Pradesh,Kadapa,"Yerramukkapalli, Kadapa - APPCB",11-07-2026 14:00,14.465052,78.824187,PM10,51,71,62
India,Andhra Pradesh,Kadapa,"Yerramukkapalli, Kadapa - APPCB",11-07-2026 14:00,14.465052,78.824187,NO2,23,35,33
India,Andhra Pradesh,Kadapa,"Yerramukkapalli, Kadapa - APPCB",11-07-2026 14:00,14.465052,78.824187,NH3,7,16,9
India,Andhra Pradesh,Kurnool,"Sita Rama Nagar, Kurnool - APPCB",11-07-2026 14:00,15.83411,78.028546,NO2,23,32,26
India,Andhra Pradesh,Kurnool,"Sita Rama Nagar, Kurnool - APPCB",11-07-2026 14:00,15.83411,78.028546,CO,6,11,9
India,Andhra Pradesh,Nellore,"Ambedkar Nagar, Nellore - APPCB ",11-07-2026 14:00,14.438164,79.966814,PM2.5,44,63,58
India,Andhra Pradesh,Nellore,"Ambedkar Nagar, Nellore - APPCB ",11-07-2026 14:00,14.438164,79.966814,SO2,9,15,13
India,Andhra Pradesh,Nellore,"Ambedkar Nagar, Nellore - APPCB ",11-07-2026 14:00,14.438164,79.966814,OZONE,24,42,33
India,Andhra Pradesh,Rajamahendravaram,"Anand Kala Kshetram, Rajamahendravaram - APPCB",11-07-2026 14:00,16.9872867,81.7363176,PM2.5,27,53,39
India,Andhra Pradesh,Rajamahendravaram,"Anand Kala Kshetram, Rajamahendravaram - APPCB",11-07-2026 14:00,16.9872867,81.7363176,PM10,52,88,67
India,Andhra Pradesh,Rajamahendravaram,"Anand Kala Kshetram, Rajamahendravaram - APPCB",11-07-2026 14:00,16.9872867,81.7363176,SO2,3,6,5
India,Andhra Pradesh,Rajamahendravaram,"Anand Kala Kshetram, Rajamahendravaram - APPCB",11-07-2026 14:00,16.9872867,81.7363176,OZONE,17,31,25
India,Andhra Pradesh,Tirumala,"Toll Gate, Tirumala - APPCB",11-07-2026 14:00,13.67,79.35,NO2,38,98,72
India,Andhra Pradesh,Tirupati,"Vaikuntapuram, Tirupati - APPCB",11-07-2026 14:00,13.615387,79.40923,SO2,8,19,10
India,Andhra Pradesh,Tirupati,"Vaikuntapuram, Tirupati - APPCB",11-07-2026 14:00,13.615387,79.40923,CO,18,28,25
India,Andhra Pradesh,Vijayawada,"HB Colony, Vijayawada - APPCB",11-07-2026 14:00,16.536107,80.594233,CO,19,36,30
India,Andhra Pradesh,Vijayawada,"Rajiv Nagar, Vijayawada - APPCB",11-07-2026 14:00,16.554731,80.64911,CO,27,32,28
India,Andhra Pradesh,Visakhapatnam,"GVM Corporation, Visakhapatnam - APPCB",11-07-2026 14:00,17.72,83.3,SO2,9,54,25
India,Assam,Byrnihat,"Central Academy for SFS, Byrnihat - PCBA",11-07-2026 14:00,26.071318,91.87488,PM10,58,121,77
India,Assam,Byrnihat,"Central Academy for SFS, Byrnihat - PCBA",11-07-2026 14:00,26.071318,91.87488,NH3,4,4,4
India,Assam,Byrnihat,"Central Academy for SFS, Byrnihat - PCBA",11-07-2026 14:00,26.071318,91.87488,CO,38,61,48
India,Bihar,Munger,"Town Hall, Munger - BSPCB",11-07-2026 14:00,25.376776,86.471523,SO2,26,94,60
India,Bihar,Muzaffarpur,"Buddha Colony, Muzaffarpur - BSPCB",11-07-2026 14:00,26.11442,85.39813,PM2.5,19,50,33
India,Bihar,Muzaffarpur,"Buddha Colony, Muzaffarpur - BSPCB",11-07-2026 14:00,26.11442,85.39813,PM10,29,51,40
India,Bihar,Muzaffarpur,"Buddha Colony, Muzaffarpur - BSPCB",11-07-2026 14:00,26.11442,85.39813,SO2,2,13,6
India,Bihar,Muzaffarpur,"Buddha Colony, Muzaffarpur - BSPCB",11-07-2026 14:00,26.11442,85.39813,CO,13,25,21
India,Bihar,Muzaffarpur,"Buddha Colony, Muzaffarpur - BSPCB",11-07-2026 14:00,26.11442,85.39813,OZONE,18,31,24
India,Bihar,Patna,"Govt. High School Shikarpur, Patna - BSPCB",11-07-2026 14:00,25.592539,85.227158,PM2.5,NA,NA,NA
India,Bihar,Patna,"Rajbansi Nagar, Patna - BSPCB",11-07-2026 14:00,25.599486,85.113666,NH3,NA,NA,NA
India,Bihar,Patna,"Muradpur, Patna - BSPCB",11-07-2026 14:00,25.619651,85.147382,NH3,4,5,5
India,Bihar,Hajipur,"Industrial Area, Hajipur - BSPCB",11-07-2026 14:00,25.697189,85.2459,OZONE,19,32,25
India,Bihar,Katihar,"Mirchaibari, Katihar - BSPCB",11-07-2026 14:00,25.560083,87.553265,NO2,2,2,2
India,Bihar,Kishanganj,"SDM Office_Khagra, Kishanganj - BSPCB",11-07-2026 14:00,26.0881305,87.93840336,NH3,NA,NA,NA
India,Bihar,Manguraha,"Forest Rest House, Manguraha - BSPCB",11-07-2026 14:00,27.308328,84.531742,CO,3,3,3
India,Bihar,Motihari,"Gandak Colony, Motihari - BSPCB",11-07-2026 14:00,26.63086,84.90051,PM10,12,300,88
India,Bihar,Motihari,"Gandak Colony, Motihari - BSPCB",11-07-2026 14:00,26.63086,84.90051,SO2,2,3,3
India,Bihar,Arrah,"New DM Office, Arrah - BSPCB",11-07-2026 14:00,25.5626095,84.663264,SO2,5,5,5
India,Bihar,Aurangabad,"Gurdeo Nagar, Aurangabad - BSPCB",11-07-2026 14:00,24.75746,84.366208,PM10,NA,NA,NA
India,Bihar,Aurangabad,"Gurdeo Nagar, Aurangabad - BSPCB",11-07-2026 14:00,24.75746,84.366208,NO2,7,8,8
India,Bihar,Aurangabad,"Gurdeo Nagar, Aurangabad - BSPCB",11-07-2026 14:00,24.75746,84.366208,NH3,1,2,2
India,Bihar,Begusarai,"Lohiyanagar, Begusarai - BSPCB",11-07-2026 14:00,25.42742023,86.13886079,PM2.5,2,70,31
India,Bihar,Begusarai,"Lohiyanagar, Begusarai - BSPCB",11-07-2026 14:00,25.42742023,86.13886079,SO2,14,18,16
India,Bihar,Gaya,"Kareemganj, Gaya - BSPCB",11-07-2026 14:00,24.792403,84.992416,NO2,10,13,12
India,Bihar,Hajipur,"Industrial Area, Hajipur - BSPCB",11-07-2026 14:00,25.697189,85.2459,PM2.5,34,143,69
India,Bihar,Hajipur,"Industrial Area, Hajipur - BSPCB",11-07-2026 14:00,25.697189,85.2459,PM10,45,77,57
India,Assam,Sivasagar,"Girls College, Sivasagar - PCBA",11-07-2026 14:00,26.987634,94.636574,CO,12,16,14
India,Bihar,Araria,"Kharahiya Basti, Araria - BSPCB",11-07-2026 14:00,26.146529,87.454184,PM10,18,26,23
India,Bihar,Araria,"Kharahiya Basti, Araria - BSPCB",11-07-2026 14:00,26.146529,87.454184,NO2,9,18,14
India,Delhi,Delhi,"Sri Aurobindo Marg, Delhi - DPCC",11-07-2026 14:00,28.531346,77.190156,PM2.5,20,70,47
India,Delhi,Delhi,"Sri Aurobindo Marg, Delhi - DPCC",11-07-2026 14:00,28.531346,77.190156,NO2,14,127,45
India,Delhi,Delhi,"Sri Aurobindo Marg, Delhi - DPCC",11-07-2026 14:00,28.531346,77.190156,SO2,0,44,10
India,Delhi,Delhi,"Okhla Phase-2, Delhi - DPCC",11-07-2026 14:00,28.530785,77.271255,NO2,17,63,36
India,Delhi,Delhi,"Okhla Phase-2, Delhi - DPCC",11-07-2026 14:00,28.530785,77.271255,OZONE,4,24,13
India,Delhi,Delhi,"Rohini, Delhi - DPCC",11-07-2026 14:00,28.732528,77.11992,NH3,6,11,8
India,Delhi,Delhi,"Rohini, Delhi - DPCC",11-07-2026 14:00,28.732528,77.11992,OZONE,3,6,4
India,Delhi,Delhi,"Vivek Vihar, Delhi - DPCC",11-07-2026 14:00,28.672342,77.31526,PM10,46,320,125
India,Delhi,Delhi,"Vivek Vihar, Delhi - DPCC",11-07-2026 14:00,28.672342,77.31526,SO2,7,17,10
India,Delhi,Delhi,"Jahangirpuri, Delhi - DPCC",11-07-2026 14:00,28.73282,77.170633,CO,33,50,39
India,Delhi,Delhi,"Mundka, Delhi - DPCC",11-07-2026 14:00,28.684678,77.076574,NH3,6,9,7
India,Delhi,Delhi,"Mundka, Delhi - DPCC",11-07-2026 14:00,28.684678,77.076574,SO2,1,11,5
India,Delhi,Delhi,"Mundka, Delhi - DPCC",11-07-2026 14:00,28.684678,77.076574,CO,33,55,40
India,Delhi,Delhi,"Wazirpur, Delhi - DPCC",11-07-2026 14:00,28.699793,77.165453,CO,39,52,45
India,Delhi,Delhi,"Dr. Karni Singh Shooting Range, Delhi - DPCC",11-07-2026 14:00,28.498571,77.26484,PM10,44,315,113
India,Delhi,Delhi,"Anand Vihar, Delhi - DPCC",11-07-2026 14:00,28.647622,77.315809,PM2.5,29,301,119
India,Delhi,Delhi,"Dwarka-Sector 8, Delhi - DPCC ",11-07-2026 14:00,28.5710274,77.0719006,PM2.5,10,77,32
India,Delhi,Delhi,"Dwarka-Sector 8, Delhi - DPCC ",11-07-2026 14:00,28.5710274,77.0719006,NH3,6,10,7
India,Delhi,Delhi,"DTU, Delhi - CPCB",11-07-2026 14:00,28.7500499,77.1112615,NO2,3,28,17
India,Delhi,Delhi,"DTU, Delhi - CPCB",11-07-2026 14:00,28.7500499,77.1112615,NH3,3,11,9
India,Delhi,Delhi,"DTU, Delhi - CPCB",11-07-2026 14:00,28.7500499,77.1112615,SO2,NA,NA,NA
India,Delhi,Delhi,"DTU, Delhi - CPCB",11-07-2026 14:00,28.7500499,77.1112615,CO,18,30,23
India,Delhi,Delhi,"IIT Delhi, Delhi - IITM",11-07-2026 14:00,28.54246,77.191651,PM2.5,24,131,48
India,Delhi,Delhi,"ITO, Delhi - CPCB",11-07-2026 14:00,28.628624,77.24106,NO2,19,108,60
India,Delhi,Delhi,"North Campus, DU, Delhi - IITM",11-07-2026 14:00,28.6573814,77.1585447,PM2.5,20,99,51
India,Delhi,Delhi,"North Campus, DU, Delhi - IITM",11-07-2026 14:00,28.6573814,77.1585447,PM10,38,351,117
India,Delhi,Delhi,"North Campus, DU, Delhi - IITM",11-07-2026 14:00,28.6573814,77.1585447,NH3,NA,NA,NA
India,Delhi,Delhi,"North Campus, DU, Delhi - IITM",11-07-2026 14:00,28.6573814,77.1585447,CO,63,94,76
India,Delhi,Delhi,"IMD Lodhi Road, Delhi - IITM",11-07-2026 14:00,28.5918245,77.2273074,NO2,2,20,9
India,Delhi,Delhi,"IMD Lodhi Road, Delhi - IITM",11-07-2026 14:00,28.5918245,77.2273074,CO,28,35,31
India,Delhi,Delhi,"Burari Crossing, Delhi - IITM",11-07-2026 14:00,28.7256504,77.2011573,PM10,29,217,89
India,Chhattisgarh,Bhilai,"Civic Center, Bhilai - Bhilai Steel Plant",11-07-2026 14:00,21.185571,81.343175,NH3,1,2,1
India,Chhattisgarh,Bhilai,"32Bungalows, Bhilai - CECB",11-07-2026 14:00,21.194815,81.31477,PM2.5,19,35,26
India,Chhattisgarh,Bhilai,"32Bungalows, Bhilai - CECB",11-07-2026 14:00,21.194815,81.31477,NO2,3,12,5
India,Chhattisgarh,Bhilai,"32Bungalows, Bhilai - CECB",11-07-2026 14:00,21.194815,81.31477,OZONE,13,29,21
India,Chhattisgarh,Bhilai,"Hathkhoj, Bhilai - CECB",11-07-2026 14:00,21.224231,81.40835,PM10,47,83,65
India,Chhattisgarh,Bilaspur,"Mangala, Bilaspur - NTPC",11-07-2026 14:00,22.08815,82.13737,NO2,16,26,22
India,Chhattisgarh,Bilaspur,"Mangala, Bilaspur - NTPC",11-07-2026 14:00,22.08815,82.13737,OZONE,NA,NA,NA
India,Chhattisgarh,Chhal,"Nawapara SECL Colony, Chhal - CECB",11-07-2026 14:00,22.118125,83.140608,PM2.5,55,93,73
India,Bihar,Samastipur,"DM Office_Kasipur, Samastipur - BSPCB",11-07-2026 14:00,25.859655,85.77944,OZONE,1,11,7
India,Bihar,Siwan,"Chitragupta Nagar, Siwan - BSPCB",11-07-2026 14:00,26.2271665,84.3570427,PM10,NA,NA,NA
India,Bihar,Siwan,"Chitragupta Nagar, Siwan - BSPCB",11-07-2026 14:00,26.2271665,84.3570427,NH3,1,1,1
India,Chandigarh,Chandigarh,"Sector-25, Chandigarh - CPCC",11-07-2026 14:00,30.751462,76.762879,SO2,4,9,6
India,Chandigarh,Chandigarh,"Sector 22, Chandigarh - CPCC",11-07-2026 14:00,30.735567,76.775714,PM2.5,2,62,20
India,Chandigarh,Chandigarh,"Sector 22, Chandigarh - CPCC",11-07-2026 14:00,30.735567,76.775714,PM10,9,95,30
India,Chandigarh,Chandigarh,"Sector 22, Chandigarh - CPCC",11-07-2026 14:00,30.735567,76.775714,SO2,2,7,5
India,Chandigarh,Chandigarh,"Sector 22, Chandigarh - CPCC",11-07-2026 14:00,30.735567,76.775714,CO,27,39,36
India,Chhattisgarh,Raipur,"Siltara Phase-II, Raipur - CECB",11-07-2026 14:00,21.371751,81.664929,PM2.5,35,101,67
India,Chhattisgarh,Raipur,"Siltara Phase-II, Raipur - CECB",11-07-2026 14:00,21.371751,81.664929,NO2,1,22,6
India,Chhattisgarh,Raipur,"AIIMS, Raipur - CECB",11-07-2026 14:00,21.258815,81.578979,CO,13,20,17
India,Chhattisgarh,Raipur,"Krishak Nagar, Raipur - CECB",11-07-2026 14:00,21.237755,81.705301,CO,7,14,11
India,Chhattisgarh,Tumidih,"OP Jindal Industrial Park, Tumidih - CECB",11-07-2026 14:00,22.06631475,83.33820077,PM2.5,35,52,41
India,Chhattisgarh,Tumidih,"OP Jindal Industrial Park, Tumidih - CECB",11-07-2026 14:00,22.06631475,83.33820077,NO2,16,65,30
India,Chhattisgarh,Tumidih,"OP Jindal Industrial Park, Tumidih - CECB",11-07-2026 14:00,22.06631475,83.33820077,SO2,5,5,5
India,Bihar,Patna,"IGSC Planetarium Complex, Patna - BSPCB",11-07-2026 14:00,25.610369,85.132568,PM10,NA,NA,NA
India,Bihar,Purnia,"Mariam Nagar, Purnia - BSPCB",11-07-2026 14:00,25.366336,87.117468,NO2,4,6,6
India,Bihar,Rajgir,"Dangi Tola, Rajgir - BSPCB",11-07-2026 14:00,25.0328,85.41948,PM2.5,25,500,96
India,Bihar,Rajgir,"Dangi Tola, Rajgir - BSPCB",11-07-2026 14:00,25.0328,85.41948,NH3,3,3,3
India,Bihar,Rajgir,"Dangi Tola, Rajgir - BSPCB",11-07-2026 14:00,25.0328,85.41948,OZONE,27,62,38
India,Bihar,Samastipur,"DM Office_Kasipur, Samastipur - BSPCB",11-07-2026 14:00,25.859655,85.77944,NO2,8,9,8
India,Chhattisgarh,Korba,"Urja Nagar, Korba - CECB",11-07-2026 14:00,22.348441,82.549611,PM2.5,35,79,50
India,Chhattisgarh,Korba,"Urja Nagar, Korba - CECB",11-07-2026 14:00,22.348441,82.549611,CO,12,18,16
India,Chhattisgarh,Korba,"Rampur, Korba - CECB",11-07-2026 14:00,22.368195,82.746431,SO2,2,7,4
India,Chhattisgarh,Kunjemura,"OP Jindal School, Kunjemura - CECB",11-07-2026 14:00,22.12665,83.483212,PM10,49,200,84
India,Chhattisgarh,Kunjemura,"OP Jindal School, Kunjemura - CECB",11-07-2026 14:00,22.12665,83.483212,NO2,6,40,11
India,Chhattisgarh,Raipur,"Bhatagaon New ISBT, Raipur - CECB",11-07-2026 14:00,21.219665,81.630094,NO2,0,9,3
India,Delhi,Delhi,"Nehru Nagar, Delhi - DPCC",11-07-2026 14:00,28.56789,77.250515,CO,5,16,9
India,Delhi,Delhi,"Nehru Nagar, Delhi - DPCC",11-07-2026 14:00,28.56789,77.250515,OZONE,18,33,24
India,Delhi,Delhi,"Patparganj, Delhi - DPCC",11-07-2026 14:00,28.623763,77.287209,NH3,6,12,7
India,Delhi,Delhi,"Patparganj, Delhi - DPCC",11-07-2026 14:00,28.623763,77.287209,CO,30,43,34
India,Delhi,Delhi,"Jawaharlal Nehru Stadium, Delhi - DPCC",11-07-2026 14:00,28.58028,77.233829,SO2,1,10,7
India,Delhi,Delhi,"Cantonment Area, Delhi - DPCC",11-07-2026 14:00,28.594169,77.1251,PM2.5,3,99,34
India,Delhi,Delhi,"Cantonment Area, Delhi - DPCC",11-07-2026 14:00,28.594169,77.1251,CO,37,82,58
India,Delhi,Delhi,"Cantonment Area, Delhi - DPCC",11-07-2026 14:00,28.594169,77.1251,OZONE,4,32,20
India,Haryana,Dharuhera,"Municipal Corporation Office, Dharuhera -  HSPCB",11-07-2026 14:00,28.2068,76.7997,NO2,NA,NA,NA
India,Haryana,Faridabad,"New Industrial Town, Faridabad - HSPCB",11-07-2026 14:00,28.39072,77.30059,PM2.5,NA,NA,NA
India,Haryana,Faridabad,"New Industrial Town, Faridabad - HSPCB",11-07-2026 14:00,28.39072,77.30059,SO2,NA,NA,NA
India,Haryana,Faridabad,"New Industrial Town, Faridabad - HSPCB",11-07-2026 14:00,28.39072,77.30059,OZONE,13,14,13
India,Haryana,Faridabad,"Sector 30, Faridabad - HSPCB",11-07-2026 14:00,28.4417,77.3217,NO2,36,40,38
India,Haryana,Faridabad,"Sector 30, Faridabad - HSPCB",11-07-2026 14:00,28.4417,77.3217,NH3,6,7,7
India,Haryana,Faridabad,"Sector 11, Faridabad - HSPCB",11-07-2026 14:00,28.376058,77.315741,PM10,69,270,150
India,Haryana,Faridabad,"Sector 11, Faridabad - HSPCB",11-07-2026 14:00,28.376058,77.315741,NO2,30,33,31
India,Haryana,Faridabad,"Sector 11, Faridabad - HSPCB",11-07-2026 14:00,28.376058,77.315741,CO,45,86,66
India,Haryana,Fatehabad,"Huda Sector, Fatehabad - HSPCB",11-07-2026 14:00,29.503664,75.467934,PM2.5,32,307,94
India,Haryana,Fatehabad,"Huda Sector, Fatehabad - HSPCB",11-07-2026 14:00,29.503664,75.467934,SO2,34,54,42
India,Haryana,Gurugram,"NISE Gwal Pahari, Gurugram - IITM",11-07-2026 14:00,28.422681,77.148944,PM10,64,409,116
India,Delhi,Delhi,"Pusa, Delhi - DPCC",11-07-2026 14:00,28.639652,77.146275,OZONE,4,8,6
India,Gujarat,Ahmedabad,"SAC ISRO Satellite, Ahmedabad - IITM",11-07-2026 14:00,23.023389,72.515201,CO,28,47,39
India,Gujarat,Ahmedabad,"Chandkheda, Ahmedabad - IITM",11-07-2026 14:00,23.107969,72.574648,PM10,52,107,78
India,Gujarat,Ahmedabad,"Chandkheda, Ahmedabad - IITM",11-07-2026 14:00,23.107969,72.574648,NH3,3,5,4
India,Gujarat,Ahmedabad,"Raikhad, Ahmedabad - IITM",11-07-2026 14:00,23.020509,72.579261,SO2,2,14,4
India,Gujarat,Ahmedabad,"SAC ISRO Bopal, Ahmedabad - IITM",11-07-2026 14:00,23.041137,72.456691,NO2,2,4,3
India,Gujarat,Ahmedabad,"SAC ISRO Bopal, Ahmedabad - IITM",11-07-2026 14:00,23.041137,72.456691,SO2,0,1,1
India,Gujarat,Ahmedabad,"SAC ISRO Bopal, Ahmedabad - IITM",11-07-2026 14:00,23.041137,72.456691,CO,13,20,16
India,Gujarat,Ahmedabad,"Gyaspur, Ahmedabad - IITM",11-07-2026 14:00,22.977134,72.553024,OZONE,7,7,7
India,Gujarat,Ahmedabad,"SVPI Airport Hansol, Ahmedabad - IITM",11-07-2026 14:00,23.076793,72.627874,OZONE,14,21,17
India,Gujarat,Ahmedabad,"Rakhial, Ahmedabad - IITM",11-07-2026 14:00,23.016834,72.625775,PM10,70,106,84
India,Gujarat,Surat,"Katargam, Surat - Nexteng Enviro",11-07-2026 14:00,21.217779,72.834787,NH3,1,1,1
India,Gujarat,Surat,"Katargam, Surat - Nexteng Enviro",11-07-2026 14:00,21.217779,72.834787,CO,39,46,41
India,Gujarat,Surat,"Science Center, Surat - SMC",11-07-2026 14:00,21.170046,72.795405,CO,31,37,34
India,Gujarat,Vadodara,"Bapunagar, Vadodara - Nexteng Enviro",11-07-2026 14:00,22.320153,73.216285,NO2,10,12,11
India,Gujarat,Vatva,"Phase-4 GIDC, Vatva - GPCB",11-07-2026 14:00,22.969611,72.6435,PM2.5,55,213,108
India,Gujarat,Vatva,"Phase-4 GIDC, Vatva - GPCB",11-07-2026 14:00,22.969611,72.6435,OZONE,10,27,18
India,Haryana,Ambala,"Patti Mehar, Ambala - HSPCB",11-07-2026 14:00,30.379589,76.778328,PM2.5,21,80,46
India,Haryana,Ambala,"Patti Mehar, Ambala - HSPCB",11-07-2026 14:00,30.379589,76.778328,CO,NA,NA,NA
India,Haryana,Ballabgarh,"Nathu Colony, Ballabgarh - HSPCB",11-07-2026 14:00,28.3419248,77.319699,NH3,4,5,4
India,Haryana,Bhiwani,"H.B. Colony, Bhiwani - HSPCB",11-07-2026 14:00,28.806223,76.141105,OZONE,11,20,16
India,Delhi,Delhi,"Narela, Delhi - DPCC",11-07-2026 14:00,28.822836,77.101981,PM2.5,21,81,45
India,Delhi,Delhi,"JNU, Delhi - DPCC",11-07-2026 14:00,28.540721,77.168544,OZONE,14,45,32
India,Delhi,Delhi,"Aya Nagar, Delhi - IITM",11-07-2026 14:00,28.4706914,77.1099364,PM2.5,8,153,46
India,Delhi,Delhi,"Aya Nagar, Delhi - IITM",11-07-2026 14:00,28.4706914,77.1099364,CO,19,31,26
India,Delhi,Delhi,"Aya Nagar, Delhi - IITM",11-07-2026 14:00,28.4706914,77.1099364,OZONE,6,34,22
India,Delhi,Delhi,"NSIT Dwarka, Delhi - CPCB",11-07-2026 14:00,28.60909,77.0325413,PM10,45,110,62
India,Delhi,Delhi,"NSIT Dwarka, Delhi - CPCB",11-07-2026 14:00,28.60909,77.0325413,NH3,5,15,8
India,Delhi,Delhi,"NSIT Dwarka, Delhi - CPCB",11-07-2026 14:00,28.60909,77.0325413,CO,38,61,52
India,Delhi,Delhi,"NSUT Jaffarpur, Delhi - DPCC",11-07-2026 14:00,28.594004,76.909423,NH3,1,7,4
India,Delhi,Delhi,"NSUT Jaffarpur, Delhi - DPCC",11-07-2026 14:00,28.594004,76.909423,CO,41,49,44
India,Delhi,Delhi,"Commonwealth Sports Complex, Delhi - DPCC",11-07-2026 14:00,28.615828,77.271992,NO2,13,62,32
India,Delhi,Delhi,"Commonwealth Sports Complex, Delhi - DPCC",11-07-2026 14:00,28.615828,77.271992,NH3,2,6,3
India,Delhi,Delhi,"Commonwealth Sports Complex, Delhi - DPCC",11-07-2026 14:00,28.615828,77.271992,SO2,7,10,8
India,Delhi,Delhi,"Punjabi Bagh, Delhi - DPCC",11-07-2026 14:00,28.674045,77.131023,PM10,33,263,130
India,Delhi,Delhi,"Punjabi Bagh, Delhi - DPCC",11-07-2026 14:00,28.674045,77.131023,SO2,7,111,47
India,Delhi,Delhi,"Shadipur, Delhi - CPCB",11-07-2026 14:00,28.6514781,77.1473105,PM2.5,17,43,28
India,Delhi,Delhi,"IGNOU_Maidan Garhi, Delhi - DPCC",11-07-2026 14:00,28.493624,77.201159,NO2,5,24,15
India,Delhi,Delhi,"IGNOU_Maidan Garhi, Delhi - DPCC",11-07-2026 14:00,28.493624,77.201159,OZONE,6,11,9
India,Gujarat,Gandhinagar,"IIPHG Lekawada, Gandhinagar - IITM",11-07-2026 14:00,23.243639,72.68994,NO2,3,8,5
India,Gujarat,Gandhinagar,"IIPHG Lekawada, Gandhinagar - IITM",11-07-2026 14:00,23.243639,72.68994,CO,33,36,35
